X,Y,fullDate,location,leakClass,month,date,weekday,year,week,lon,lat,ObjectId
-8479826.176,5319087.8285,2011/01/14 00:00:00+00,1205 W FAYETTE ST,0,1.0,14.0,,2011.0,2.0,-76.1755746057759,43.0467332304331,1
-8474632.4274,5314543.8284,2011/01/14 00:00:00+00,1003 JAMESVILLE AVE,0,1.0,14.0,,2011.0,2.0,-76.1289183682834,43.0168952398567,2
-8478343.6865,5316542.6572,2011/01/14 00:00:00+00,PALMER AVE & CHENEY ST,0,1.0,14.0,,2011.0,2.0,-76.162257176012,43.0300222543868,3
-8472936.4285,5319304.87950001,2011/01/16 00:00:00+00,2100 E FAYETTE ST,0,1.0,16.0,,2011.0,3.0,-76.1136829509462,43.0481581239255,4
-8477194.7516,5320760.5106,2011/01/17 00:00:00+00,206 BUTTERNUT ST,0,1.0,17.0,,2011.0,3.0,-76.1519361182007,43.0577131761086,5
-8472853.033,5319641.2958,2011/01/23 00:00:00+00,104 CROLY ST,0,1.0,23.0,,2011.0,4.0,-76.1129337964234,43.0503665597289,6
-8475326.52060001,5318316.1994,2011/01/21 00:00:00+00,169 MARSHALL ST,0,1.0,21.0,,2011.0,3.0,-76.1351535135851,43.0416673820757,7
-8471798.1541,5321533.2829,2011/01/20 00:00:00+00,356 NICHOLS AVE,0,1.0,20.0,,2011.0,3.0,-76.1034576580358,43.0627852023022,8
-8479963.1885,5319637.78399999,2011/01/26 00:00:00+00,634 RICHMOND AVE,0,1.0,26.0,,2011.0,4.0,-76.1768054100046,43.0503435066048,9
-8476881.26969999,5324628.87,2011/01/26 00:00:00+00,1559 LEMOYNE AVE,0,1.0,26.0,,2011.0,4.0,-76.14912006238,43.083098621823,10
-8471838.1042,5319769.19479999,2011/01/26 00:00:00+00,313 SEELEY RD,0,1.0,26.0,,2011.0,4.0,-76.1038165358901,43.0512061436391,11
-8472821.63059999,5317477.3888,2011/01/27 00:00:00+00,543 CUMBERLAND AVE,0,1.0,27.0,,2011.0,4.0,-76.1126517038646,43.0361600036413,12
-8470683.69980001,5317792.3266,2011/01/27 00:00:00+00,LOCKWOOD RD & KIMBER RD,0,1.0,27.0,,2011.0,4.0,-76.0934463447244,43.038227848591,13
-8472821.63059999,5317477.3888,2011/01/28 00:00:00+00,543 CUMBERLAND AVE,0,1.0,28.0,,2011.0,4.0,-76.1126517038646,43.0361600036413,14
-8479865.878,5319107.79709999,2011/01/30 00:00:00+00,1225 W FAYETTE ST,0,1.0,30.0,,2011.0,5.0,-76.1759312549101,43.0468643214129,15
-8482510.6744,5316056.823,2011/01/31 00:00:00+00,HIGHRIDGE PL & HIGHRIDGE DR,0,1.0,31.0,,2011.0,5.0,-76.1996898652051,43.0268318678504,16
-8471505.4654,5317637.56259999,2011/01/31 00:00:00+00,400 BROOKFORD RD,0,1.0,31.0,,2011.0,5.0,-76.1008283907088,43.0372116948827,17
-8478213.3783,5316734.4168,2011/01/31 00:00:00+00,425 RICH ST,0,1.0,31.0,,2011.0,5.0,-76.1610865975349,43.0312814598342,18
-8478213.3783,5316734.4168,2011/01/31 00:00:00+00,425 RICH ST,0,1.0,31.0,,2011.0,5.0,-76.1610865975349,43.0312814598342,19
-8474266.9536,5314552.6007,2011/02/04 00:00:00+00,312 ARNOLD AVE,0,2.0,4.0,,2011.0,5.0,-76.1256352612786,43.0169528567806,20
-8478714.8418,5315104.3493,2011/02/06 00:00:00+00,718 SUMMIT AVE,0,2.0,6.0,,2011.0,6.0,-76.1655913207997,43.0205766617243,21
-8476311.1283,5318308.4467,2011/02/03 00:00:00+00,S MCBRIDE ST & MONROE ST,0,2.0,3.0,,2011.0,5.0,-76.1439983950428,43.0416164824396,22
-8478126.6947,5324046.8794,2011/02/07 00:00:00+00,819 HIAWATHA BLVD E,0,2.0,7.0,,2011.0,6.0,-76.1603079055073,43.0792800801658,23
-8475487.941,5310293.84380001,2011/02/08 00:00:00+00,305 MAPLEWOOD AVE,0,2.0,8.0,,2011.0,6.0,-76.1366035777099,42.9889747617576,24
-8471993.4949,5320093.7675,2011/02/09 00:00:00+00,2410 ERIE BLVD E,0,2.0,9.0,,2011.0,6.0,-76.1052124342983,43.0533367265069,25
-8475692.7698,5320078.6712,2011/02/10 00:00:00+00,422 HAWLEY AVE,0,2.0,10.0,,2011.0,6.0,-76.1384435861266,43.0532376319575,26
-8476096.9789,5319495.4488,2011/02/10 00:00:00+00,700 E WASHINGTON ST,0,2.0,10.0,,2011.0,6.0,-76.1420746582517,43.0494091434208,27
-8474328.8501,5322678.2055,2011/02/10 00:00:00+00,250 WHEATON RD,0,2.0,10.0,,2011.0,6.0,-76.1261912869984,43.0702990344592,28
-8469813.3641,5318104.0791,2011/02/12 00:00:00+00,518 HILLSBORO PKWY,0,2.0,12.0,,2011.0,7.0,-76.0856279861081,43.0402747106008,29
-8471652.5928,5320148.5458,2011/02/13 00:00:00+00,2564 ERIE BLVD E,0,2.0,13.0,,2011.0,7.0,-76.1021500586301,43.0536962987634,30
-8478312.9893,5322063.5182,2011/02/13 00:00:00+00,115 TURTLE ST,0,2.0,13.0,,2011.0,7.0,-76.1619814183726,43.0662651145183,31
-8471522.1178,5319209.6519,2011/02/13 00:00:00+00,175 MILNOR AVE,0,2.0,13.0,,2011.0,7.0,-76.1009779817632,43.0475329791301,32
-8472030.1015,5321078.98290001,2011/02/15 00:00:00+00,S EDWARDS AVE & CALEB AVE,0,2.0,15.0,,2011.0,7.0,-76.1055412769811,43.0598034931724,33
-8477795.48269999,5314350.1824,2011/02/15 00:00:00+00,100 KEEN PL,0,2.0,15.0,,2011.0,7.0,-76.1573325774884,43.0156233490615,34
-8481415.7787,5320234.0184,2011/02/15 00:00:00+00,204 HERKIMER ST,0,2.0,15.0,,2011.0,7.0,-76.1898542497868,43.0542573483938,35
-8474295.1578,5314919.5131,2011/02/16 00:00:00+00,606 THURBER ST,0,2.0,16.0,,2011.0,7.0,-76.1258886239179,43.0193627081386,36
-8477344.38370001,5312428.2525,2011/02/17 00:00:00+00,1524 VALLEY DR,0,2.0,17.0,,2011.0,7.0,-76.153280286225,43.0029984483794,37
-8470786.1677,5319486.8723,2011/02/16 00:00:00+00,513 FAYETTE BLVD,0,2.0,16.0,,2011.0,7.0,-76.0943668295314,43.0493528423051,38
-8482041.887,5319600.1469,2011/02/16 00:00:00+00,640 MYRTLE ST,0,2.0,16.0,,2011.0,7.0,-76.1954786763409,43.050096438251,39
-8477818.8429,5320591.921,2011/02/17 00:00:00+00,SOLAR ST & PLUM ST,0,2.0,17.0,,2011.0,7.0,-76.1575424257355,43.0566065966528,40
-8477129.2896,5315111.4765,2011/02/17 00:00:00+00,300 HOPE AVE,0,2.0,17.0,,2011.0,7.0,-76.1513480630494,43.0206234707431,41
-8477820.2001,5320985.93149999,2011/02/18 00:00:00+00,232 W DIVISION ST,0,2.0,18.0,,2011.0,7.0,-76.1575546176705,43.059192750629,42
-8475339.7241,5323394.37360001,2011/02/21 00:00:00+00,209 KENWICK DR,0,2.0,21.0,,2011.0,8.0,-76.1352721226436,43.0749985930133,43
-8478247.2543,5322007.4119,2011/02/22 00:00:00+00,304 SUNSET AVE,0,2.0,22.0,,2011.0,8.0,-76.1613909108206,43.0658969005507,44
-8481701.0845,5318921.5809,2011/02/23 00:00:00+00,206 MYRTLE ST,0,2.0,23.0,,2011.0,8.0,-76.1924171953947,43.0456418280344,45
-8480937.1921,5316906.8821,2011/02/28 00:00:00+00,1913 BELLEVUE AVE,0,2.0,28.0,,2011.0,9.0,-76.1855550332113,43.0324139455816,46
-8472695.7344,5318588.0544,2011/02/23 00:00:00+00,217 SCOTTHOLM BLVD,0,2.0,23.0,,2011.0,8.0,-76.1115207590579,43.0434521942782,47
-8476731.5445,5320174.96789999,2011/02/24 00:00:00+00,E WILLOW ST & PROSPECT AVE,0,2.0,24.0,,2011.0,8.0,-76.1477750580243,43.0538697362894,48
-8477790.28840001,5322163.07799999,2011/03/01 00:00:00+00,515 DANFORTH ST,0,3.0,1.0,,2011.0,9.0,-76.1572859162977,43.0669184993164,49
-8477786.6474,5322169.79159999,2011/03/02 00:00:00+00,519 DANFORTH ST,0,3.0,2.0,,2011.0,9.0,-76.1572532086382,43.0669625586579,50
-8477786.6474,5322169.79159999,2011/03/02 00:00:00+00,519 DANFORTH ST,0,3.0,2.0,,2011.0,9.0,-76.1572532086382,43.0669625586579,51
-8472447.3282,5319345.1758,2011/03/04 00:00:00+00,2507 E FAYETTE ST,0,3.0,4.0,,2011.0,9.0,-76.1092892881966,43.0484226568921,52
-8474543.1341,5312493.12919999,2011/03/07 00:00:00+00,170 INTREPID LA,0,3.0,7.0,,2011.0,10.0,-76.1281162329218,43.0034246570712,53
-8479656.092,5318434.8266,2011/03/09 00:00:00+00,S WILBUR AVE & MAGNOLIA ST,0,3.0,9.0,,2011.0,10.0,-76.1740467152081,43.0424462127391,54
-8479226.7823,5321291.26169999,2011/03/10 00:00:00+00,VAN RENSSELAER ST & W BEAR ST,0,3.0,10.0,,2011.0,10.0,-76.1701901605568,43.0611967615752,55
-8476862.0206,5321615.6815,2011/03/14 00:00:00+00,658 E DIVISION ST,0,3.0,14.0,,2011.0,11.0,-76.1489471447727,43.0633259938497,56
-8478866.6161,5323870.712,2011/03/17 00:00:00+00,290 TEX SIMONE DR,0,3.0,17.0,,2011.0,11.0,-76.166954732534,43.078124168259,57
-8481583.6357,5320809.52349999,2011/03/17 00:00:00+00,829 EMERSON AVE,0,3.0,17.0,,2011.0,11.0,-76.1913621348733,43.0580348806298,58
-8482177.4353,5321100.4743,2011/03/17 00:00:00+00,EMERSON AVE & ERIE BLVD W,0,3.0,17.0,,2011.0,11.0,-76.1966963274371,43.0599445510374,59
-8477542.1689,5319883.8568,2011/03/21 00:00:00+00,W GENESEE ST & N FRANKLIN ST,0,3.0,21.0,,2011.0,12.0,-76.1550570209063,43.0519588244318,60
-8476905.8843,5319136.1764,2011/03/23 00:00:00+00,MONTGOMERY ST & E JEFFERSON ST,0,3.0,23.0,,2011.0,12.0,-76.149341179094,43.0470506269436,61
-8476149.3605,5313320.10340001,2011/03/24 00:00:00+00,DAWES AVE & S SALINA ST,0,3.0,24.0,,2011.0,12.0,-76.1425452101706,43.0088572204539,62
-8476840.1901,5319056.38579999,2011/03/26 00:00:00+00,411 MONTGOMERY ST,0,3.0,26.0,,2011.0,13.0,-76.1487510380546,43.0465268130733,63
-8479803.863,5319304.70449999,2011/04/01 00:00:00+00,1000 ERIE BLVD W,0,4.0,1.0,,2011.0,13.0,-76.1753741646866,43.0481569751011,64
-8479574.46,5319303.0695,2011/04/13 00:00:00+00,912 ERIE BLVD W,0,4.0,13.0,,2011.0,15.0,-76.1733134024754,43.0481462417986,65
-8472532.7825,5322432.4249,2011/04/13 00:00:00+00,JAMES ST & WOODBINE AVE,0,4.0,13.0,,2011.0,15.0,-76.1100569372345,43.0686861173162,66
-8477819.456,5318402.906,2011/04/28 00:00:00+00,807 S WEST ST,0,4.0,28.0,,2011.0,17.0,-76.1575479333065,43.0422366433761,67
-8472631.0121,5321576.03380001,2011/04/25 00:00:00+00,334 FOREST HILL DR,0,4.0,25.0,,2011.0,17.0,-76.1109393487448,43.0630657820018,68
-8472532.7825,5322432.4249,2011/04/23 00:00:00+00,JAMES ST & WOODBINE AVE,0,4.0,23.0,,2011.0,17.0,-76.1100569372345,43.0686861173162,69
-8478126.6947,5324046.8794,2011/04/22 00:00:00+00,819 HIAWATHA BLVD E,0,4.0,22.0,,2011.0,16.0,-76.1603079055073,43.0792800801658,70
-8478161.26689999,5323968.2939,2011/04/18 00:00:00+00,HIAWATHA BLVD E & FOURTH NORTH ST,0,4.0,18.0,,2011.0,16.0,-76.1606184728639,43.0787644487803,71
-8481388.08,5320520.81240001,2011/05/14 00:00:00+00,EMERSON AVE & LEWIS ST,0,5.0,14.0,,2011.0,20.0,-76.1896054281312,43.0561398518159,72
-8480085.7961,5321268.2222,2011/05/11 00:00:00+00,835 HIAWATHA BLVD W,0,5.0,11.0,,2011.0,19.0,-76.1779068128149,43.0610455458993,73
-8480085.7961,5321268.2222,2011/04/18 00:00:00+00,835 HIAWATHA BLVD W,0,4.0,18.0,,2011.0,16.0,-76.1779068128149,43.0610455458993,74
-8476184.6886,5312227.1127,2011/05/06 00:00:00+00,4710 S SALINA ST,0,5.0,6.0,,2011.0,18.0,-76.1428625678925,43.001677037914,75
-8476264.1224,5317549.1149,2011/05/05 00:00:00+00,1427 S MCBRIDE ST,0,5.0,5.0,,2011.0,18.0,-76.1435761338586,43.036630954996,76
-8471483.7397,5318450.30890001,2011/05/03 00:00:00+00,3012 E GENESEE ST,0,5.0,3.0,,2011.0,18.0,-76.1006332254251,43.0425478589337,77
-8470671.9765,5320145.9476,2011/05/03 00:00:00+00,123 POLK ST,0,5.0,3.0,,2011.0,18.0,-76.0933410325287,43.0536792438707,78
-8477000.22390001,5320633.0839,2011/05/18 00:00:00+00,E LAUREL ST & PROSPECT AVE,0,5.0,18.0,,2011.0,20.0,-76.1501886461398,43.0568767813506,79
-8475861.5071,5310180.99699999,2011/05/17 00:00:00+00,MAPLEWOOD AVE & COLDBROOK DR,0,5.0,17.0,,2011.0,20.0,-76.1399593790825,42.9882332363507,80
-8477751.5085,5319287.87450001,2011/05/31 00:00:00+00,299 WALTON ST,0,5.0,31.0,,2011.0,22.0,-76.1569375505288,43.0480464909247,81
-8478015.0675,5314611.59060001,2011/05/24 00:00:00+00,162 BERTRAM PL,0,5.0,24.0,,2011.0,21.0,-76.1593051413085,43.017340304116,82
-8477592.5813,5319671.54060001,2011/06/03 00:00:00+00,W WATER ST & S FRANKLIN ST,0,6.0,3.0,,2011.0,22.0,-76.1555098832006,43.05056510061,83
-8480886.3545,5319930.6778,2011/06/06 00:00:00+00,W GENESEE ST & N LOWELL AVE,0,6.0,6.0,,2011.0,23.0,-76.1850983512804,43.0522661709184,84
-8477400.1439,5321148.15669999,2011/06/04 00:00:00+00,E DIVISION ST & LOCK ALY,0,6.0,4.0,,2011.0,23.0,-76.153781188624,43.0602575112281,85
-8470470.911,5321565.9957,2010/06/07 00:00:00+00,BURNS AVE & CALEB AVE,0,6.0,7.0,,2010.0,23.0,-76.0915348304111,43.0629999007653,86
-8471308.7775,5320202.4544,2011/06/06 00:00:00+00,2646 ERIE BLVD E,0,6.0,6.0,,2011.0,23.0,-76.0990615132411,43.0540501601318,87
-8475729.96,5311262.4475,2011/06/02 00:00:00+00,LATTER DR & E CHELTENHAM RD,0,6.0,2.0,,2011.0,22.0,-76.1387776713774,42.995339166717,88
-8474491.457,5320094.9108,2011/06/17 00:00:00+00,321 N BEECH ST,0,6.0,17.0,,2011.0,24.0,-76.1276520096341,43.0533442313061,89
-8480255.7744,5319997.5663,2011/06/20 00:00:00+00,1312 W GENESEE ST,0,6.0,20.0,,2011.0,25.0,-76.1794337538635,43.0527052435646,90
-8478292.1009,5317559.2945,2011/06/21 00:00:00+00,RICH ST & WHITE ST,0,6.0,21.0,,2011.0,25.0,-76.1617937746828,43.036697793642,91
-8480871.0823,5320149.5857,2011/06/24 00:00:00+00,1900 W FAYETTE ST,0,6.0,24.0,,2011.0,25.0,-76.1849611587736,43.0537031247889,92
-8477382.1539,5319665.5161,2011/06/27 00:00:00+00,100 S CLINTON ST,0,6.0,27.0,,2011.0,26.0,-76.1536195817044,43.0505255530518,93
-8476036.297,5320084.5424,2011/06/28 00:00:00+00,316 HAWLEY AVE,0,6.0,28.0,,2011.0,26.0,-76.1415295434693,43.0532761714808,94
-8480151.06999999,5317355.6762,2011/06/29 00:00:00+00,318 LYDELL ST,0,6.0,29.0,,2011.0,26.0,-76.1784931782351,43.0353608342026,95
-8478203.3779,5321263.6706,2011/07/01 00:00:00+00,300 W KIRKPATRICK ST,0,7.0,1.0,,2011.0,26.0,-76.1609967624132,43.0610156722351,96
-8476897.309,5319373.0567,2011/06/30 00:00:00+00,300 E FAYETTE ST,0,6.0,30.0,,2011.0,26.0,-76.1492641458634,43.048605685862,97
-8476700.1494,5319377.0159,2011/06/30 00:00:00+00,300 S STATE ST,0,6.0,30.0,,2011.0,26.0,-76.1474930310425,43.048631676668,98
-8475490.366,5318135.75169999,2010/01/05 00:00:00+00,100 WAVERLY AVE,0,1.0,5.0,,2010.0,1.0,-76.1366253618556,43.0404826584135,99
-8475238.72240001,5318877.8561,2010/01/07 00:00:00+00,UNIVERSITY AVE & MADISON ST,0,1.0,7.0,,2010.0,1.0,-76.1343648089353,43.0453547749414,100
-8477082.78919999,5321083.5659,2008/01/23 00:00:00+00,ASH ST & N TOWNSEND ST,0,1.0,23.0,,2008.0,4.0,-76.150930342849,43.0598335735199,101
-8479116.481,5315728.71480001,2008/01/23 00:00:00+00,HIAWATHA LAKE,0,1.0,23.0,,2008.0,4.0,-76.1691993071203,43.0246771460122,102
-8478866.6161,5323870.712,2008/01/24 00:00:00+00,290 TEX SIMONE DR,0,1.0,24.0,,2008.0,4.0,-76.166954732534,43.078124168259,103
-8474852.6468,5314874.07159999,2008/01/24 00:00:00+00,JAMESVILLE AVE & THURBER ST,0,1.0,24.0,,2008.0,4.0,-76.1308966328122,43.0190642571248,104
-8472830.1453,5319295.9292,2008/01/27 00:00:00+00,200 CROLY ST,0,1.0,27.0,,2008.0,4.0,-76.1127281927162,43.0480993677704,105
-8473891.3177,5321418.6054,2008/01/26 00:00:00+00,107 MARIPOSA ST,0,1.0,26.0,,2008.0,4.0,-76.1222608665762,43.0620325526589,106
-8472085.0729,5317673.4286,2008/01/28 00:00:00+00,STANDISH DR & SHIRLEY RD,0,1.0,28.0,,2008.0,4.0,-76.1060350934692,43.0374471863455,107
-8472317.3136,5317287.7269,2008/01/31 00:00:00+00,JANET DR & EUCLID AVE,0,1.0,31.0,,2008.0,5.0,-76.1081213471732,43.0349146720556,108
-8482302.745,5320970.0978,2008/02/05 00:00:00+00,1211 MILTON AVE,0,2.0,5.0,,2008.0,6.0,-76.1978220036247,43.059088825588,109
-8477690.0652,5318666.77929999,2008/02/06 00:00:00+00,103 MCCORMICK AVE,0,2.0,6.0,,2008.0,6.0,-76.1563855959738,43.0439690379134,110
-8477618.7952,5315622.1387,2008/02/08 00:00:00+00,115 ROCKLAND AVE,0,2.0,8.0,,2008.0,6.0,-76.1557453666708,43.0239772330276,111
-8473694.1451,5315805.57619999,2008/02/13 00:00:00+00,200 MEADOWBROOK DR,0,2.0,13.0,,2008.0,7.0,-76.1204896349743,43.025181909876,112
-8478352.7945,5316801.39189999,2008/02/14 00:00:00+00,STERLING AVE & PALMER AVE,0,2.0,14.0,,2008.0,7.0,-76.1623389945681,43.0317212513413,113
-8478228.6442,5318163.90109999,2008/02/15 00:00:00+00,214 SLOCUM AVE,0,2.0,15.0,,2008.0,7.0,-76.1612237334479,43.0406674739141,114
-8478159.2977,5313793.29109999,2008/02/16 00:00:00+00,BARNES AVE & PALMER LA,0,2.0,16.0,,2008.0,7.0,-76.1606007832394,43.011965471549,115
-8473939.9185,5321874.2055,2008/02/17 00:00:00+00,TEALL AVE & JAMES ST,0,2.0,17.0,,2008.0,7.0,-76.1226974549908,43.0650226858171,116
-8470938.2828,5320257.07379999,2008/02/20 00:00:00+00,2740 ERIE BLVD E,0,2.0,20.0,,2008.0,8.0,-76.0957333027241,43.0544086851791,117
-8477994.06980001,5312125.4682,2008/02/22 00:00:00+00,171 HOPPER RD,0,2.0,22.0,,2008.0,8.0,-76.1591165157601,43.0010092621659,118
-8479265.68959999,5319942.4461,2008/02/28 00:00:00+00,408 N GEDDES ST,0,2.0,28.0,,2008.0,9.0,-76.1705396707793,43.0523434211761,119
-8477146.6702,5319136.7523,2008/03/01 00:00:00+00,E JEFFERSON ST & BANK ST,0,3.0,1.0,,2008.0,9.0,-76.1515041956357,43.0470544076284,120
-8479451.9454,5320685.2029,2008/03/03 00:00:00+00,805 SPENCER ST,0,3.0,3.0,,2008.0,9.0,-76.1722128350983,43.0572188778978,121
-8469498.3916,5320346.8973,2008/03/03 00:00:00+00,HEADSON DR & THOMPSON RD,0,3.0,3.0,,2008.0,9.0,-76.0827985399998,43.0549982875117,122
-8470315.7947,5320358.1022,2008/03/04 00:00:00+00,2921 ERIE BLVD E,0,3.0,4.0,,2008.0,10.0,-76.09014139698,43.0550718361872,123
-8472222.1705,5322443.6498,2008/03/05 00:00:00+00,2820 JAMES ST,0,3.0,5.0,,2008.0,10.0,-76.1072666621642,43.0687597808233,124
-8475853.4573,5319492.11549999,2008/03/08 00:00:00+00,800 E WASHINGTON ST,0,3.0,8.0,,2008.0,10.0,-76.1398870664988,43.0493872617142,125
-8472181.3677,5323433.9665,2008/03/09 00:00:00+00,357 N EDWARDS AVE,0,3.0,9.0,,2008.0,10.0,-76.1069001243754,43.0752583946204,126
-8476297.9,5319508.0721,2008/03/14 00:00:00+00,E WASHINGTON ST & S MCBRIDE ST,0,3.0,14.0,,2008.0,11.0,-76.143879563202,43.0494920099826,127
-8474338.8345,5314048.8248,2008/03/15 00:00:00+00,1300 JAMESVILLE AVE,0,3.0,15.0,,2008.0,11.0,-76.1262809783896,43.0136439428029,128
-8481958.7442,5319383.3637,2008/03/17 00:00:00+00,501 MYRTLE ST,0,3.0,17.0,,2008.0,11.0,-76.1947317918608,43.0486733478004,129
-8477777.7503,5324229.824,2008/03/20 00:00:00+00,SIXTH NORTH ST & WOLF ST,0,3.0,20.0,,2008.0,12.0,-76.157173284629,43.0804804371863,130
-8473155.0659,5320364.85390001,2008/03/22 00:00:00+00,RIEGEL ST & PEAT ST,0,3.0,22.0,,2008.0,12.0,-76.1156470041272,43.0551161541299,131
-8475166.8084,5323995.1063,2008/03/24 00:00:00+00,221 RIVOLI AVE,0,3.0,24.0,,2008.0,12.0,-76.1337187944818,43.0789403763151,132
-8482382.7101,5320790.1231,2008/03/25 00:00:00+00,1130 AVERY AVE,0,3.0,25.0,,2008.0,13.0,-76.19854034234,43.0579075430003,133
-8477384.3015,5324162.77440001,2008/03/30 00:00:00+00,LEMOYNE AVE & SEVENTH NORTH ST,0,3.0,30.0,,2008.0,13.0,-76.1536388739234,43.0800405064169,134
-8472210.3205,5321726.9023,2008/03/31 00:00:00+00,GLENCOVE RD & S COLLINGWOOD AVE,0,3.0,31.0,,2008.0,13.0,-76.107160211803,43.0640559412662,135
-8473155.0659,5320364.85390001,2008/03/31 00:00:00+00,RIEGEL ST & PEAT ST,0,3.0,31.0,,2008.0,13.0,-76.1156470041272,43.0551161541299,136
-8473155.0659,5320364.85390001,2008/04/01 00:00:00+00,PEAT ST & RIEGEL ST,0,4.0,1.0,,2008.0,14.0,-76.1156470041272,43.0551161541299,137
-8474593.9618,5315587.3825,2008/04/01 00:00:00+00,1300 E COLVIN ST,0,4.0,1.0,,2008.0,14.0,-76.1285728259195,43.0237489782916,138
-8476842.2364,5316996.3441,2008/04/07 00:00:00+00,100 E CASTLE ST,0,4.0,7.0,,2008.0,14.0,-76.1487694202803,43.0330013856076,139
-8472773.5155,5315755.7556,2008/04/08 00:00:00+00,1143 CUMBERLAND AVE,0,4.0,8.0,,2008.0,15.0,-76.1122194785674,43.0248547287138,140
-8473956.40569999,5322075.6708,2008/04/09 00:00:00+00,1345 TEALL AVE,0,4.0,9.0,,2008.0,15.0,-76.1228455620283,43.066344869211,141
-8482078.7983,5320726.73210001,2008/04/10 00:00:00+00,CHEMUNG ST & WILLIS AVE,0,4.0,10.0,,2008.0,15.0,-76.1958102561903,43.0574914641854,142
-8480437.4233,5317816.02660001,2008/04/11 00:00:00+00,601 GRAND AVE,0,4.0,11.0,,2008.0,15.0,-76.1810655336956,43.0383834572141,143
-8477355.9039,5323492.6085,2008/04/14 00:00:00+00,132 BRACE ST,0,4.0,14.0,,2008.0,15.0,-76.1533837739423,43.0756431910288,144
-8474603.7995,5315603.19259999,2008/04/15 00:00:00+00,E COLVIN ST & COMSTOCK AVE,0,4.0,15.0,,2008.0,16.0,-76.1286611994822,43.0238528082229,145
-8470671.9765,5320145.9476,2008/04/25 00:00:00+00,123 POLK ST,0,4.0,25.0,,2008.0,17.0,-76.0933410325287,43.0536792438707,146
-8478947.74129999,5320548.1878,2008/04/18 00:00:00+00,313 SAND ST,0,4.0,18.0,,2008.0,16.0,-76.1676834926048,43.0563195397371,147
-8476686.5606,5317795.0128,2008/04/22 00:00:00+00,BURT ST & S STATE ST,0,4.0,22.0,,2008.0,17.0,-76.1473709607752,43.0382454855679,148
-8469889.0909,5320345.2556,2008/04/23 00:00:00+00,124 HEADSON DR,0,4.0,23.0,,2008.0,17.0,-76.0863082515267,43.0549875114277,149
-8476170.2752,5312076.9045,2008/04/09 00:00:00+00,W SENECA TPKE & S SALINA ST,0,4.0,9.0,,2008.0,15.0,-76.1427330901173,43.0006902097672,150
-8476484.0345,5317670.10389999,2008/04/25 00:00:00+00,VAN BUREN ST & OAKWOOD AVE,0,4.0,25.0,,2008.0,17.0,-76.1455516378645,43.0374253568383,151
-8475225.108,5319690.099,2008/04/30 00:00:00+00,ERIE BLVD E & UNIVERSITY AVE,0,4.0,30.0,,2008.0,18.0,-76.1342425086992,43.0506869262284,152
-8481800.3254,5320023.1648,2008/05/02 00:00:00+00,HERKIMER ST & CHARLOTTE ST,0,5.0,2.0,,2008.0,18.0,-76.1933086915675,43.0528732776138,153
-8479394.5534,5319304.53109999,2008/05/06 00:00:00+00,836 ERIE BLVD W,0,5.0,6.0,,2008.0,19.0,-76.1716972739904,43.0481558367803,154
-8470938.2828,5320257.07379999,2008/05/14 00:00:00+00,2740 ERIE BLVD E,0,5.0,14.0,,2008.0,20.0,-76.0957333027241,43.0544086851791,155
-8476380.2448,5315619.75840001,2008/05/11 00:00:00+00,2400 S SALINA ST,0,5.0,11.0,,2008.0,19.0,-76.1446192791261,43.023961600887,156
-8474780.30399999,5320068.7467,2008/05/20 00:00:00+00,333 ELM ST,0,5.0,20.0,,2008.0,21.0,-76.1302467663828,43.0531724858507,157
-8474780.30399999,5320068.7467,2008/05/20 00:00:00+00,333 ELM ST,0,5.0,20.0,,2008.0,21.0,-76.1302467663828,43.0531724858507,158
-8476060.62369999,5323825.12419999,2008/05/23 00:00:00+00,319 HILLSIDE ST,0,5.0,23.0,,2008.0,21.0,-76.1417480739335,43.0778250430718,159
-8476060.62369999,5323825.12419999,2008/05/23 00:00:00+00,319 HILLSIDE ST,0,5.0,23.0,,2008.0,21.0,-76.1417480739335,43.0778250430718,160
-8475643.4263,5309874.2605,2008/05/24 00:00:00+00,100 HAYES TER,0,5.0,24.0,,2008.0,21.0,-76.1380003259244,42.9862176009124,161
-8476023.5739,5320084.33409999,2008/05/27 00:00:00+00,320 HAWLEY AVE,0,5.0,27.0,,2008.0,22.0,-76.1414152499174,43.0532748041657,162
-8480181.8537,5316362.29279999,2008/06/02 00:00:00+00,WOODLAND RESRV,0,6.0,2.0,,2008.0,22.0,-76.1787697129173,43.0288378528961,163
-8479813.1662,5319755.42979999,2008/06/03 00:00:00+00,205 APPLE ST,0,6.0,3.0,,2008.0,23.0,-76.1754577367541,43.0511157848252,164
-8476468.39599999,5319942.44360001,2008/06/03 00:00:00+00,207 BURNET AVE,0,6.0,3.0,,2008.0,23.0,-76.1454111548288,43.0523434047655,165
-8471288.3782,5317544.4967,2008/06/10 00:00:00+00,438 BROOKFORD RD,0,6.0,10.0,,2008.0,24.0,-76.0988782632113,43.0366006321465,166
-8475115.3362,5319978.9879,2008/06/11 00:00:00+00,310 LODI ST,0,6.0,11.0,,2008.0,24.0,-76.1332564118422,43.0525832906704,167
-8482260.8722,5321103.9685,2008/06/14 00:00:00+00,1318 WILLIS AVE,0,6.0,14.0,,2008.0,24.0,-76.1974458538624,43.0599674850358,168
-8477266.2339,5316267.71,2008/06/16 00:00:00+00,315 KIRK AVE,0,6.0,16.0,,2008.0,24.0,-76.152578254627,43.0282167455327,169
-8476366.1044,5317823.3526,2008/06/16 00:00:00+00,461 BURT ST,0,6.0,16.0,,2008.0,24.0,-76.1444922537517,43.0384315579263,170
-8478866.6161,5323870.712,2008/06/20 00:00:00+00,290 TEX SIMONE DR,0,6.0,20.0,,2008.0,25.0,-76.166954732534,43.078124168259,171
-8478137.69079999,5318072.6006,2008/06/23 00:00:00+00,306 SLOCUM AVE,0,6.0,23.0,,2008.0,25.0,-76.1604066851542,43.0400680364616,172
-8473425.8021,5319617.14559999,2008/06/26 00:00:00+00,1807 ERIE BLVD E,0,6.0,26.0,,2008.0,26.0,-76.1180790687915,43.0502080261646,173
-8480134.4347,5317356.4868,2008/06/27 00:00:00+00,319 LYDELL ST,0,6.0,27.0,,2008.0,26.0,-76.1783437407927,43.0353661566667,174
-8475033.2995,5319908.83599999,2008/07/01 00:00:00+00,LODI ST & BURNET AVE,0,7.0,1.0,,2008.0,27.0,-76.1325194636275,43.0521227952639,175
-8481270.6464,5318418.7151,2008/07/01 00:00:00+00,BURNET PARK,0,7.0,1.0,,2008.0,27.0,-76.1885505041537,43.0423404354687,176
-8475331.7531,5319102.56899999,2008/07/03 00:00:00+00,1060 E GENESEE ST,0,7.0,3.0,,2008.0,27.0,-76.1352005179323,43.0468299997173,177
-8477073.3012,5319722.76139999,2008/07/06 00:00:00+00,100 S WARREN ST,0,7.0,6.0,,2008.0,27.0,-76.1508451106949,43.0509013362084,178
-8477203.2836,5317148.33559999,2008/07/09 00:00:00+00,100 OXFORD ST,0,7.0,9.0,,2008.0,28.0,-76.1520127624607,43.0339994041787,179
-8476968.7346,5317734.2482,2008/07/16 00:00:00+00,1000 S SALINA ST,0,7.0,16.0,,2008.0,29.0,-76.149905772945,43.0378465178148,180
-8476466.1306,5317389.87530001,2008/07/22 00:00:00+00,TRUTH TER & OAKWOOD AVE,0,7.0,22.0,,2008.0,30.0,-76.1453908043944,43.035585387811,181
-8474772.1855,5312098.301,2008/07/24 00:00:00+00,124 LAFAYETTE RD,0,7.0,24.0,,2008.0,30.0,-76.1301738366565,43.0008307800813,182
-8477787.063,5321657.5656,2008/07/30 00:00:00+00,200 UNION PL,0,7.0,30.0,,2008.0,31.0,-76.1572569420365,43.0636008822164,183
-8470224.6482,5321928.32149999,2008/08/02 00:00:00+00,128 CONKLIN AVE,0,8.0,2.0,,2008.0,31.0,-76.0893226140396,43.0653778429628,184
-8472822.29610001,5317490.40489999,2008/08/04 00:00:00+00,539 CUMBERLAND AVE,0,8.0,4.0,,2008.0,31.0,-76.1126576821529,43.0362454672198,185
-8472582.4084,5317850.39719999,2008/08/05 00:00:00+00,SCOTTHOLM TER & SUNNYSIDE RD,0,8.0,5.0,,2008.0,32.0,-76.1105027342791,43.0386091257846,186
-8469456.96689999,5318250.1632,2008/08/12 00:00:00+00,MANOR DR & BARRINGTON RD,0,8.0,12.0,,2008.0,33.0,-76.0824264155883,43.0412338261491,187
-8476998.856,5318483.64429999,2008/08/17 00:00:00+00,E ADAMS ST & HARRISON PL,0,8.0,17.0,,2008.0,33.0,-76.150176358085,43.0427667158027,188
-8477117.0845,5320317.2925,2008/08/21 00:00:00+00,PEARL ST & E BELDEN AVE,0,8.0,21.0,,2008.0,34.0,-76.1512384227707,43.0548039619412,189
-8477578.5147,5321641.43859999,2008/08/28 00:00:00+00,940 N SALINA ST,0,8.0,28.0,,2008.0,35.0,-76.1553835207828,43.0634950396991,190
-8475225.0024,5323312.8322,2008/09/02 00:00:00+00,257 PLEASANTVIEW AVE,0,9.0,2.0,,2008.0,36.0,-76.1342415600783,43.0744635292983,191
-8472916.71820001,5322610.3869,2008/09/03 00:00:00+00,NORTH AVE & ARNETT AVE,0,9.0,3.0,,2008.0,36.0,-76.1135058903088,43.0698539841157,192
-8472916.71820001,5322610.3869,2008/09/04 00:00:00+00,NORTH AVE & ARNETT AVE,0,9.0,4.0,,2008.0,36.0,-76.1135058903088,43.0698539841157,193
-8478324.5379,5318412.9575,2008/09/09 00:00:00+00,347 SEYMOUR ST,0,9.0,9.0,,2008.0,37.0,-76.1620851612115,43.0423026348962,194
-8477771.594,5317620.9452,2008/09/11 00:00:00+00,175 LINCOLN AVE,0,9.0,11.0,,2008.0,37.0,-76.1571179816452,43.0371025869025,195
-8474492.3427,5320110.7875,2008/09/16 00:00:00+00,325 N BEECH ST,0,9.0,16.0,,2008.0,38.0,-76.1276599660126,43.0534484483415,196
-8478205.7177,5319570.00470001,2008/09/20 00:00:00+00,515 ERIE BLVD W,0,9.0,20.0,,2008.0,38.0,-76.1610177811943,43.049898569373,197
-8477710.6168,5321878.32849999,2008/09/21 00:00:00+00,309 KIRKPATRICK ST,0,9.0,21.0,,2008.0,38.0,-76.1565702141378,43.065049744669,198
-8477780.83149999,5318947.6993,2008/09/22 00:00:00+00,100 TULLY ST,0,9.0,22.0,,2008.0,38.0,-76.1572009635195,43.0458132945588,199
-8473129.6907,5321546.515,2008/09/24 00:00:00+00,240 SHOTWELL PARK,0,9.0,24.0,,2008.0,39.0,-76.1154190548272,43.0628720464273,200
-8472769.5506,5321600.83380001,2008/09/25 00:00:00+00,325 STAFFORD AVE,0,9.0,25.0,,2008.0,39.0,-76.1121838612647,43.0632285470287,201
-8477133.3733,5322210.3993,2008/09/25 00:00:00+00,609 CARBON ST,0,9.0,25.0,,2008.0,39.0,-76.1513847475507,43.0672290541282,202
-8475072.895,5318139.6784,2008/09/26 00:00:00+00,WAVERLY AVE & WALNUT PL,0,9.0,26.0,,2008.0,39.0,-76.1328751560558,43.0405084392816,203
-8477356.32619999,5321648.7488,2008/10/01 00:00:00+00,121 POND ST,0,10.0,1.0,,2008.0,40.0,-76.1533875675277,43.063543017025,204
-8472638.0666,5321681.5697,2008/10/01 00:00:00+00,302 FOREST HILL DR,0,10.0,1.0,,2008.0,40.0,-76.1110027203965,43.063758422299,205
-8476373.4639,5320240.40189999,2008/10/05 00:00:00+00,N MCBRIDE ST & JAMES ST,0,10.0,5.0,,2008.0,40.0,-76.144558365265,43.0542992500407,206
-8480260.3483,5319796.8246,2008/10/08 00:00:00+00,308 LAKEVIEW AVE,0,10.0,8.0,,2008.0,41.0,-76.1794748419063,43.0513875159911,207
-8475829.26020001,5315989.00949999,2008/10/08 00:00:00+00,428 E COLVIN ST,0,10.0,8.0,,2008.0,41.0,-76.1396697002512,43.0263865355028,208
-8477496.0851,5323134.78129999,2008/10/10 00:00:00+00,300 SECOND NORTH ST,0,10.0,10.0,,2008.0,41.0,-76.1546430430874,43.0732951669687,209
-8477178.5699,5318533.31129999,2008/10/12 00:00:00+00,580 S SALINA ST,0,10.0,12.0,,2008.0,41.0,-76.1517907555164,43.0430927930612,210
-8474009.2595,5319340.5226,2008/10/05 00:00:00+00,1605 E FAYETTE ST,0,10.0,5.0,,2008.0,40.0,-76.123320355792,43.0483921101061,211
-8472530.0352,5323313.63339999,2008/10/07 00:00:00+00,339 NORWOOD AVE,0,10.0,7.0,,2008.0,41.0,-76.1100322578187,43.0744687866878,212
-8475111.5744,5319976.26330001,2008/10/18 00:00:00+00,308 LODI ST,0,10.0,18.0,,2008.0,42.0,-76.1332226190178,43.0525654057485,213
-8476955.58,5320219.9962,2008/10/18 00:00:00+00,HICKORY ST & N STATE ST,0,10.0,18.0,,2008.0,42.0,-76.1497876031626,43.0541653057972,214
-8477222.6449,5318969.2764,2008/10/19 00:00:00+00,441 S SALINA ST,0,10.0,19.0,,2008.0,42.0,-76.1521866879778,43.0459549472213,215
-8476932.3984,5324114.327,2008/10/21 00:00:00+00,400 CADILLAC ST,0,10.0,21.0,,2008.0,43.0,-76.1495793593067,43.0797226278051,216
-8479658.4134,5326293.6878,2008/10/27 00:00:00+00,611 7TH NORTH ST,0,10.0,27.0,,2008.0,43.0,-76.1740675686991,43.0940204671445,217
-8476393.1178,5316744.3498,2008/10/27 00:00:00+00,227 E KENNEDY ST,0,10.0,27.0,,2008.0,43.0,-76.1447349192526,43.0313466850055,218
-8470236.9031,5320368.3788,2008/10/30 00:00:00+00,2943 ERIE BLVD E,0,10.0,30.0,,2008.0,44.0,-76.0894327016793,43.0551392914479,219
-8476965.45649999,5313734.5587,2008/11/03 00:00:00+00,118 CONAN ST,0,11.0,3.0,,2008.0,44.0,-76.1498763252716,43.0115796817225,220
-8477219.7486,5321003.0916,2008/11/10 00:00:00+00,N SALINA ST & ASH ST,0,11.0,10.0,,2008.0,45.0,-76.1521606700723,43.0593053813438,221
-8471861.2989,5320084.71359999,2008/11/12 00:00:00+00,119 SEELEY RD,0,11.0,12.0,,2008.0,46.0,-76.1040248974253,43.0532772952654,222
-8481851.152,5316869.93869999,2008/11/19 00:00:00+00,ONONDAGA BLVD,0,11.0,19.0,,2008.0,47.0,-76.1937652746837,43.0321713601418,223
-8472006.8322,5322465.9136,2008/11/20 00:00:00+00,N MIDLER AVE & JAMES ST,0,11.0,20.0,,2008.0,47.0,-76.1053322453027,43.0689058869489,224
-8478266.6611,5315257.9753,2008/11/21 00:00:00+00,159 CLYDE AVE,0,11.0,21.0,,2008.0,47.0,-76.1615652450711,43.0215856169916,225
-8479311.4934,5319735.50139999,2008/11/26 00:00:00+00,515 WILKINSON ST,0,11.0,26.0,,2008.0,48.0,-76.1709511333154,43.0509849668206,226
-8471505.4654,5317637.56259999,2008/11/28 00:00:00+00,400 BROOKFORD RD,0,11.0,28.0,,2008.0,48.0,-76.1008283907088,43.0372116948827,227
-8472533.1571,5316853.1866,2008/11/30 00:00:00+00,SHERBOURNE RD & CRAWFORD AVE,0,11.0,30.0,,2008.0,48.0,-76.1100603023235,43.0320613587013,228
-8469801.3587,5318096.84609999,2008/11/30 00:00:00+00,522 HILLSBORO PKWY,0,11.0,30.0,,2008.0,48.0,-76.085520139765,43.0402272219304,229
-8472392.4574,5323099.81160001,2008/11/30 00:00:00+00,285 ASHDALE AVE,0,11.0,30.0,,2008.0,48.0,-76.1087963754137,43.073065694688,230
-8472392.4574,5323099.81160001,2008/12/02 00:00:00+00,285 ASHDALE AVE,0,12.0,2.0,,2008.0,49.0,-76.1087963754137,43.073065694688,231
-8476702.0036,5318895.0724,2008/12/02 00:00:00+00,MADISON ST & S STATE ST,0,12.0,2.0,,2008.0,49.0,-76.1475096876045,43.045467800025,232
-8478340.6873,5320458.75720001,2008/12/03 00:00:00+00,MALTBIE ST & EVANS ST,0,12.0,3.0,,2008.0,49.0,-76.16223023374,43.0557325290641,233
-8474977.1751,5319687.15800001,2008/12/03 00:00:00+00,WALNUT AVE & ERIE BLVD E,0,12.0,3.0,,2008.0,49.0,-76.1320152895642,43.0506676202083,234
-8470390.9699,5322321.85289999,2008/12/03 00:00:00+00,120 BOSTON ST,0,12.0,3.0,,2008.0,49.0,-76.0908167072915,43.0679604828416,235
-8475204.65689999,5319903.93560001,2008/12/03 00:00:00+00,660 BURNET AVE,0,12.0,3.0,,2008.0,49.0,-76.1340587933421,43.0520906276284,236
-8481925.71589999,5316052.44,2008/12/04 00:00:00+00,105 HILLTOP RD,0,12.0,4.0,,2008.0,49.0,-76.1944350935938,43.0268030847164,237
-8477087.0144,5314994.2414,2008/12/04 00:00:00+00,HOPE AVE & W BRIGHTON AVE,0,12.0,4.0,,2008.0,49.0,-76.1509682984664,43.0198535060557,238
-8473145.5654,5320225.2787,2008/12/05 00:00:00+00,PEAT ST & CANAL ST,0,12.0,5.0,,2008.0,49.0,-76.1155616596836,43.0541999804733,239
-8477518.7628,5320615.3262,2008/12/06 00:00:00+00,200 GENANT DR,0,12.0,6.0,,2008.0,49.0,-76.1548467603326,43.0567602236543,240
-8477518.7628,5320615.3262,2008/12/06 00:00:00+00,200 GENANT DR,0,12.0,6.0,,2008.0,49.0,-76.1548467603326,43.0567602236543,241
-8479443.7139,5318212.1255,2008/12/08 00:00:00+00,100 GRAND AVE,0,12.0,8.0,,2008.0,49.0,-76.1721388902757,43.040984090972,242
-8481483.8208,5316576.72279999,2008/12/09 00:00:00+00,ARCHER RD & BELLEVUE AVE,0,12.0,9.0,,2008.0,50.0,-76.1904654823708,43.0302459508846,243
-8472015.1049,5318429.79619999,2008/12/08 00:00:00+00,100 BROOKFORD RD,0,12.0,8.0,,2008.0,49.0,-76.1054065602312,43.0424131865363,244
-8479739.0061,5317952.9029,2008/12/10 00:00:00+00,215 GRAND AVE,0,12.0,10.0,,2008.0,50.0,-76.1747915452411,43.0392821470701,245
-8479739.0061,5317952.9029,2008/12/10 00:00:00+00,215 GRAND AVE,0,12.0,10.0,,2008.0,50.0,-76.1747915452411,43.0392821470701,246
-8474122.3978,5314136.7586,2008/12/11 00:00:00+00,152 TEJAH AVE,0,12.0,11.0,,2008.0,50.0,-76.1243366944331,43.0142215247211,247
-8479500.4066,5323547.9037,2008/12/11 00:00:00+00,2250 PARK ST,0,12.0,11.0,,2008.0,50.0,-76.1726481694648,43.0760060242297,248
-8478465.4129,5316347.66419999,2008/12/12 00:00:00+00,LOWER ONONDAG PARK DR,0,12.0,12.0,,2008.0,50.0,-76.163350662868,43.0287417900568,249
-8475135.5306,5312410.29360001,2008/12/13 00:00:00+00,509 E SENECA TPKE,0,12.0,13.0,,2008.0,50.0,-76.1334378212239,43.0028804665281,250
-8472159.2272,5318304.3638,2008/12/13 00:00:00+00,107 BRADFORD PKWY,0,12.0,13.0,,2008.0,50.0,-76.1067012328799,43.0415896765196,251
-8480973.489,5320259.9469,2008/12/18 00:00:00+00,1937 W FAYETTE ST,0,12.0,18.0,,2008.0,51.0,-76.1858810938116,43.0544275443234,252
-8470385.3694,5320332.1782,2008/12/18 00:00:00+00,2900 ERIE BLVD E,0,12.0,18.0,,2008.0,51.0,-76.090766397144,43.0549016715837,253
-8474794.7397,5312534.4791,2008/12/19 00:00:00+00,914 E BRIGHTON AVE,0,12.0,19.0,,2008.0,51.0,-76.1303764444823,43.0036963044684,254
-8478094.04490001,5316116.1867,2008/12/20 00:00:00+00,12 CENTENNIAL DR,0,12.0,20.0,,2008.0,51.0,-76.1600146073637,43.0272217075731,255
-8473433.4037,5321308.94029999,2008/12/22 00:00:00+00,590 BOYDEN ST,0,12.0,22.0,,2008.0,51.0,-76.1181473551261,43.061312791681,256
-8476763.432,5313797.56289999,2008/12/23 00:00:00+00,120 RILL AVE,0,12.0,23.0,,2008.0,52.0,-76.1480615083105,43.0119935312133,257
-8477885.8813,5315617.2096,2008/12/23 00:00:00+00,255 ROCKLAND AVE,0,12.0,23.0,,2008.0,52.0,-76.1581446419289,43.0239448621521,258
-8477801.8853,5317967.2963,2008/12/23 00:00:00+00,LINCOLN AVE & MIDLAND AVE,0,12.0,23.0,,2008.0,52.0,-76.1573900930228,43.0393766491708,259
-8477781.2867,5317958.9304,2008/12/24 00:00:00+00,141 MIDLAND AVE,0,12.0,24.0,,2008.0,52.0,-76.1572050526507,43.0393217215742,260
-8475624.6277,5319247.0002,2008/12/26 00:00:00+00,312 IRVING AVE,0,12.0,26.0,,2008.0,52.0,-76.1378314552274,43.0477781619098,261
-8475841.927,5319709.9151,2008/12/26 00:00:00+00,815 ERIE BLVD E,0,12.0,26.0,,2008.0,52.0,-76.1397834880516,43.0508170076837,262
-8482018.4444,5315528.5789,2008/12/26 00:00:00+00,208 ALTON ST,0,12.0,26.0,,2008.0,52.0,-76.1952680878821,43.0233627948952,263
-8472912.3056,5322665.37740001,2008/12/30 00:00:00+00,218 NORTH AVE,0,12.0,30.0,,2008.0,53.0,-76.1134662512485,43.0702148520446,264
-8477947.5015,5316800.2338,2007/01/05 00:00:00+00,709 SOUTH AVE,0,1.0,5.0,,2007.0,1.0,-76.1586981856036,43.0317136467129,265
-8474915.0666,5317824.80529999,2007/01/05 00:00:00+00,129 COLLEGE PL,0,1.0,5.0,,2007.0,1.0,-76.1314573594159,43.0384410959923,266
-8474328.0258,5322661.08270001,2007/01/08 00:00:00+00,244 WHEATON RD,0,1.0,8.0,,2007.0,2.0,-76.1261838821855,43.0701866687168,267
-8476663.6871,5317378.2594,2007/01/10 00:00:00+00,E RAYNOR AVE & S STATE ST,0,1.0,10.0,,2007.0,2.0,-76.1471654846287,43.0355091171165,268
-8470762.185,5320131.0285,2007/01/11 00:00:00+00,POLK ST & LIME ST,0,1.0,11.0,,2007.0,2.0,-76.0941513892717,43.0535813130386,269
-8476547.8572,5322213.74449999,2007/01/16 00:00:00+00,E DIVISION ST & GILBERT AVE,0,1.0,16.0,,2007.0,3.0,-76.1461249669334,43.0672510075643,270
-8475650.8088,5323833.86690001,2007/01/17 00:00:00+00,HARDING ST & HUNTLEY ST,0,1.0,17.0,,2007.0,3.0,-76.1380666440502,43.0778824085717,271
-8475626.911,5311400.82819999,2007/01/19 00:00:00+00,N CHELTENHAM RD & SUNRISE DR,0,1.0,19.0,,2007.0,3.0,-76.1378519664603,42.9962483710667,272
-8475626.911,5311400.82819999,2007/01/20 00:00:00+00,N CHELTENHAM RD & SUNRISE DR,0,1.0,20.0,,2007.0,3.0,-76.1378519664603,42.9962483710667,273
-8475476.7035,5311011.1648,2007/01/20 00:00:00+00,132 LYNN CIR,0,1.0,20.0,,2007.0,3.0,-76.1365026295299,42.9936881266289,274
-8470745.1867,5322545.436,2007/01/22 00:00:00+00,JAMES ST & RIDGEWOOD DR,0,1.0,22.0,,2007.0,4.0,-76.0939986909448,43.0694277496342,275
-8476791.9979,5322664.97749999,2007/01/22 00:00:00+00,POND ST & GRIFFITHS ST,0,1.0,22.0,,2007.0,4.0,-76.1483181201562,43.070212227761,276
-8477417.9266,5321931.1688,2007/01/22 00:00:00+00,746 N ALVORD ST,0,1.0,22.0,,2007.0,4.0,-76.153940933336,43.0653965294115,277
-8477616.4456,5315160.3145,2007/01/27 00:00:00+00,HUNT AVE & ELMHURST AVE,0,1.0,27.0,,2007.0,4.0,-76.1557242598549,43.0209442211105,278
-8479790.3254,5319616.17079999,2007/01/24 00:00:00+00,547 RICHMOND AVE,0,1.0,24.0,,2007.0,4.0,-76.1752525543567,43.0502016270985,279
-8474890.4203,5322892.6735,2007/01/25 00:00:00+00,223 WOODLAWN TER,0,1.0,25.0,,2007.0,4.0,-76.131235957936,43.0717064302864,280
-8475210.9172,5320222.2551,2007/01/24 00:00:00+00,621 HAWLEY AVE,0,1.0,24.0,,2007.0,4.0,-76.1341150305739,43.0541801333672,281
-8479520.1457,5316121.7794,2007/01/27 00:00:00+00,100 ALANSON RD,0,1.0,27.0,,2007.0,4.0,-76.172825488817,43.0272584345467,282
-8477798.5606,5322130.3337,2007/01/26 00:00:00+00,N ALVORD ST & DANFORTH ST,0,1.0,26.0,,2007.0,4.0,-76.1573602267346,43.066703607851,283
-8474439.3917,5322233.346,2007/01/26 00:00:00+00,RUGBY RD & DURSTON AVE,0,1.0,26.0,,2007.0,4.0,-76.1271842990865,43.0673796455382,284
-8479615.7714,5320164.0751,2007/01/28 00:00:00+00,400 LIBERTY ST,0,1.0,28.0,,2007.0,4.0,-76.1736845090957,43.0537982348299,285
-8476455.05929999,5315860.1399,2007/01/29 00:00:00+00,S SALINA ST & E COLVIN ST,0,1.0,29.0,,2007.0,5.0,-76.1452913492143,43.025540237859,286
-8478396.1229,5323150.77099999,2007/01/31 00:00:00+00,1604 SPRING ST,0,1.0,31.0,,2007.0,5.0,-76.1627282202076,43.0734000916011,287
-8475226.3758,5319628.0552,2007/02/01 00:00:00+00,UNIVERSITY AVE & E WATER ST,0,2.0,1.0,,2007.0,5.0,-76.1342538975404,43.0502796420932,288
-8478396.1229,5323150.77099999,2007/01/31 00:00:00+00,1604 SPRING ST,0,1.0,31.0,,2007.0,5.0,-76.1627282202076,43.0734000916011,289
-8475145.83320001,5315889.1491,2007/02/02 00:00:00+00,E COLVIN ST & HUGHES PL,0,2.0,2.0,,2007.0,5.0,-76.1335303710544,43.0257307447648,290
-8478369.0317,5316009.55829999,2007/02/01 00:00:00+00,115 PARKVIEW AVE,0,2.0,1.0,,2007.0,5.0,-76.1624848558174,43.0265214801448,291
-8474304.2174,5322071.8672,2007/02/02 00:00:00+00,133 CHATHAM RD,0,2.0,2.0,,2007.0,5.0,-76.1259700076894,43.0663199070783,292
-8477330.4198,5324100.019,2007/02/02 00:00:00+00,100 BELLSHIRE LA,0,2.0,2.0,,2007.0,5.0,-76.153154846377,43.0796287482066,293
-8474377.7847,5313682.0844,2007/02/02 00:00:00+00,336 AINSLEY DR,0,2.0,2.0,,2007.0,5.0,-76.1266308739894,43.0112349968214,294
-8473676.52380001,5315480.7563,2007/02/03 00:00:00+00,555 BUCKINGHAM AVE,0,2.0,3.0,,2007.0,5.0,-76.1203313401432,43.0230487256984,295
-8475176.1337,5313664.1441,2007/02/03 00:00:00+00,100 AINSLEY DR,0,2.0,3.0,,2007.0,5.0,-76.133802565077,43.0111171529661,296
-8474736.3109,5312437.55369999,2007/02/03 00:00:00+00,971 E BRIGHTON AVE,0,2.0,3.0,,2007.0,5.0,-76.1298515696416,43.003059552968,297
-8474762.3965,5314748.06460001,2007/02/04 00:00:00+00,901 JAMESVILLE AVE,0,2.0,4.0,,2007.0,5.0,-76.1300859005733,43.0182366598464,298
-8477995.2679,5312116.7672,2007/02/04 00:00:00+00,173 HOPPER RD,0,2.0,4.0,,2007.0,5.0,-76.1591272784755,43.0009520987083,299
-8476392.4155,5316935.6119,2007/02/05 00:00:00+00,552 OAKWOOD AVE,0,2.0,5.0,,2007.0,6.0,-76.1447286103844,43.0326025965093,300
-8474762.3965,5314748.06460001,2007/02/05 00:00:00+00,901 JAMESVILLE AVE,0,2.0,5.0,,2007.0,6.0,-76.1300859005733,43.0182366598464,301
-8473860.2609,5316129.52060001,2007/02/05 00:00:00+00,1347 LANCASTER AVE,0,2.0,5.0,,2007.0,6.0,-76.1219818785951,43.0273092705732,302
-8477471.5567,5319200.3223,2007/02/06 00:00:00+00,238 W JEFFERSON ST,0,2.0,6.0,,2007.0,6.0,-76.1544227007212,43.0474717323538,303
-8474578.3261,5315097.14479999,2007/02/06 00:00:00+00,1302 COMSTOCK AVE,0,2.0,6.0,,2007.0,6.0,-76.1284323680366,43.0205293449891,304
-8474377.7847,5313682.0844,2007/02/06 00:00:00+00,336 AINSLEY DR,0,2.0,6.0,,2007.0,6.0,-76.1266308739894,43.0112349968214,305
-8476495.1287,5320149.11269999,2007/02/07 00:00:00+00,518 JAMES ST,0,2.0,7.0,,2007.0,6.0,-76.1456512987588,43.0537000199615,306
-8480248.76359999,5319777.9495,2007/02/06 00:00:00+00,LAKEVIEW AVE & APPLE ST,0,2.0,6.0,,2007.0,6.0,-76.1793707747755,43.0512636128258,307
-8475748.7288,5319660.4105,2007/02/07 00:00:00+00,WASHINGTON ST,0,2.0,7.0,,2007.0,6.0,-76.1389462743765,43.0504920375512,308
-8470529.891,5318485.4883,2007/02/07 00:00:00+00,201 E GENESEE PKWY,0,2.0,7.0,,2007.0,6.0,-76.0920646567656,43.0427788221914,309
-8476214.6388,5312786.2016,2007/02/08 00:00:00+00,100 E GLEN AVE,0,2.0,8.0,,2007.0,6.0,-76.1431316151167,43.0053499648262,310
-8473599.2001,5319332.36210001,2007/02/09 00:00:00+00,1809 E FAYETTE ST,0,2.0,9.0,,2007.0,6.0,-76.1196367295278,43.0483385389684,311
-8477052.088,5319605.809,2007/02/09 00:00:00+00,205 E GENESEE ST,0,2.0,9.0,,2007.0,6.0,-76.150654549277,43.0501336071115,312
-8476642.9967,5317071.7008,2007/02/11 00:00:00+00,E CASTLE ST & S STATE ST,0,2.0,11.0,,2007.0,6.0,-76.1469796196031,43.0334962007413,313
-8482152.0607,5320308.4208,2007/02/12 00:00:00+00,929 AVERY AVE,0,2.0,12.0,,2007.0,7.0,-76.196468383527,43.0547457280834,314
-8474687.3054,5312279.64949999,2007/02/12 00:00:00+00,E SENECA TPKE & E BRIGHTON AVE,0,2.0,12.0,,2007.0,7.0,-76.129411345745,43.0020221870536,315
-8473587.13949999,5319332.16040001,2007/02/12 00:00:00+00,1813 E FAYETTE ST,0,2.0,12.0,,2007.0,7.0,-76.1195283873146,43.0483372148702,316
-8470009.3308,5320371.3055,2007/02/12 00:00:00+00,100 HEADSON DR,0,2.0,12.0,,2007.0,7.0,-76.087388384926,43.0551585021958,317
-8474763.1672,5312461.8449,2007/02/12 00:00:00+00,944 E BRIGHTON AVE,0,2.0,12.0,,2007.0,7.0,-76.1300928238892,43.0032191346475,318
-8479813.1662,5319755.42979999,2007/02/13 00:00:00+00,205 APPLE ST,0,2.0,13.0,,2007.0,7.0,-76.1754577367541,43.0511157848252,319
-8472120.3336,5318147.1111,2007/02/13 00:00:00+00,BRADFORD PKWY & MEADOWBROOK DR,0,2.0,13.0,,2007.0,7.0,-76.1063518457266,43.0405572388694,320
-8471709.3706,5322788.5599,2007/02/13 00:00:00+00,921 TYSON PL,0,2.0,13.0,,2007.0,7.0,-76.1026601022855,43.0710232133005,321
-8472120.3336,5318147.1111,2007/02/15 00:00:00+00,BRADFORD PKWY & MEADOWBROOK DR,0,2.0,15.0,,2007.0,7.0,-76.1063518457266,43.0405572388694,322
-8472157.8035,5318294.47920001,2007/02/15 00:00:00+00,109 BRADFORD PKWY,0,2.0,15.0,,2007.0,7.0,-76.1066884435652,43.0415247800013,323
-8472901.9435,5321028.8714,2007/02/17 00:00:00+00,474 HICKOK AVE,0,2.0,17.0,,2007.0,7.0,-76.1133731669205,43.0594745872707,324
-8478256.5226,5322013.26249999,2007/02/17 00:00:00+00,318 SUNSET AVE,0,2.0,17.0,,2007.0,7.0,-76.161474169376,43.0659352969239,325
-8472279.736,5317895.0585,2007/02/17 00:00:00+00,306 SCOTT AVE,0,2.0,17.0,,2007.0,7.0,-76.107783781849,43.0389023592201,326
-8476717.5191,5318142.82080001,2007/02/18 00:00:00+00,1000 S STATE ST,0,2.0,18.0,,2007.0,7.0,-76.1476490657124,43.0405290707964,327
-8470158.3659,5318570.4895,2007/02/18 00:00:00+00,316 CARLTON DR,0,2.0,18.0,,2007.0,7.0,-76.088727190008,43.0433368768432,328
-8478361.4301,5320568.4061,2007/02/20 00:00:00+00,308 MALTBIE ST,0,2.0,20.0,,2007.0,8.0,-76.1624165694827,43.0564522492151,329
-8473185.402,5319325.6293,2007/02/20 00:00:00+00,1951 E FAYETTE ST,0,2.0,20.0,,2007.0,8.0,-76.1159195179501,43.0482943402007,330
-8477857.16169999,5313791.27590001,2007/02/21 00:00:00+00,100 MARVIN RD,0,2.0,21.0,,2007.0,8.0,-76.1578866493725,43.0119522345402,331
-8477019.5035,5323250.206,2007/02/23 00:00:00+00,2527 GRANT BLVD,0,2.0,23.0,,2007.0,8.0,-76.1503618377333,43.0740525814134,332
-8475913.7137,5317132.36729999,2007/02/23 00:00:00+00,156 OAKLAND ST,0,2.0,23.0,,2007.0,8.0,-76.1404283589496,43.0338945526312,333
-8477214.6775,5319726.55540001,2007/02/24 00:00:00+00,100 N SALINA ST,0,2.0,24.0,,2007.0,8.0,-76.1521151156059,43.0509262416005,334
-8476686.5939,5320412.44229999,2007/02/27 00:00:00+00,518 N TOWNSEND ST,0,2.0,27.0,,2007.0,9.0,-76.1473712599142,43.0554285219553,335
-8482182.9057,5320391.3322,2007/03/01 00:00:00+00,ESSEX ST & AVERY AVE,0,3.0,1.0,,2007.0,9.0,-76.1967454688764,43.0552899565342,336
-8469819.9399,5318107.9093,2007/03/01 00:00:00+00,516 HILLSBORO PKWY,0,3.0,1.0,,2007.0,9.0,-76.0856870575246,43.0402998579805,337
-8477558.7622,5317049.98749999,2007/03/03 00:00:00+00,HOVEY ST & MIDLAND AVE,0,3.0,3.0,,2007.0,9.0,-76.1552060810563,43.0333536249834,338
-8475842.0006,5319508.77259999,2007/03/04 00:00:00+00,811 E WASHINGTON ST,0,3.0,4.0,,2007.0,9.0,-76.1397841492116,43.049496608462,339
-8477832.8884,5312621.6088,2007/03/04 00:00:00+00,410 ENGLEWOOD AVE,0,3.0,4.0,,2007.0,9.0,-76.1576685986087,43.0042686974761,340
-8471855.5679,5319782.45569999,2007/03/06 00:00:00+00,300 SEELEY RD,0,3.0,6.0,,2007.0,10.0,-76.1039734149764,43.0512931932186,341
-8475464.8707,5319686.42629999,2007/03/07 00:00:00+00,1000 ERIE BLVD E,0,3.0,7.0,,2007.0,10.0,-76.1363963336789,43.050662817006,342
-8477036.4966,5313549.5745,2007/03/07 00:00:00+00,621 BALLANTYNE RD,0,3.0,7.0,,2007.0,10.0,-76.1505144893478,43.010364578091,343
-8474776.4289,5314739.0702,2007/03/08 00:00:00+00,900 JAMESVILLE AVE,0,3.0,8.0,,2007.0,10.0,-76.1302119557673,43.0181775853925,344
-8472637.8474,5318527.5419,2007/03/09 00:00:00+00,241 SCOTTHOLM BLVD,0,3.0,9.0,,2007.0,10.0,-76.1110007512894,43.0430549154822,345
-8477705.50229999,5312173.487,2007/03/13 00:00:00+00,204 KRAMER DR,0,3.0,13.0,,2007.0,11.0,-76.1565242698025,43.0013247330672,346
-8476653.5275,5323839.73770001,2007/03/16 00:00:00+00,1416 COURT ST,0,3.0,16.0,,2007.0,11.0,-76.1470742193891,43.0779209299796,347
-8473720.71929999,5315925.4266,2007/03/16 00:00:00+00,464 BUCKINGHAM AVE,0,3.0,16.0,,2007.0,11.0,-76.1207283550745,43.025968982639,348
-8478258.881,5323781.87130001,2007/03/17 00:00:00+00,GRANT BLVD & HIAWATHA BLVD E,0,3.0,17.0,,2007.0,11.0,-76.1614953552437,43.077541237024,349
-8473703.8013,5315802.5068,2007/03/17 00:00:00+00,BUCKINGHAM AVE & MEADOWBROOK DR,0,3.0,17.0,,2007.0,11.0,-76.1205763780948,43.0251617526048,350
-8482166.77399999,5320114.3502,2009/03/19 00:00:00+00,220 HAYDEN AVE,0,3.0,19.0,,2009.0,12.0,-76.1966005553497,43.0534718344133,351
-8477587.3886,5321046.9831,2007/03/20 00:00:00+00,100 W DIVISION ST,0,3.0,20.0,,2007.0,12.0,-76.1554632363828,43.0595934632816,352
-8479691.1752,5315247.0733,2007/03/26 00:00:00+00,ARDEN DR & S GEDDES ST,0,3.0,26.0,,2007.0,13.0,-76.1743618729559,43.0215140174814,353
-8474483.9517,5312440.1851,2007/03/26 00:00:00+00,198 INTREPID LA,0,3.0,26.0,,2007.0,13.0,-76.1275845883771,43.0030768400398,354
-8476798.5055,5319522.9968,2007/03/28 00:00:00+00,333 E WASHINGTON ST,0,3.0,28.0,,2007.0,13.0,-76.1483765789217,43.0495899841061,355
-8475242.9113,5318298.5836,2007/03/29 00:00:00+00,200 MARSHALL ST,0,3.0,29.0,,2007.0,13.0,-76.1344024384642,43.0415517271061,356
-8472632.3349,5321595.8216,2007/03/30 00:00:00+00,328 FOREST HILL DR,0,3.0,30.0,,2007.0,13.0,-76.1109512316594,43.063195651464,357
-8476793.55780001,5315566.96889999,2007/04/02 00:00:00+00,135 FAGE AVE,0,4.0,2.0,,2007.0,14.0,-76.1483321329764,43.0236149154588,358
-8478460.0951,5323427.0994,2007/04/08 00:00:00+00,100 TEX SIMONE DR,0,4.0,8.0,,2007.0,14.0,-76.1633028922578,43.0752133340037,359
-8474972.2064,5321997.66239999,2007/04/10 00:00:00+00,404 SEDGWICK DR,0,4.0,10.0,,2007.0,15.0,-76.1319706549726,43.0658329163861,360
-8477117.0845,5320317.2925,2007/04/10 00:00:00+00,PEARL ST & E BELDEN AVE,0,4.0,10.0,,2007.0,15.0,-76.1512384227707,43.0548039619412,361
-8477219.36499999,5319322.5677,2007/04/14 00:00:00+00,325 S SALINA ST,0,4.0,14.0,,2007.0,15.0,-76.1521572241348,43.0482742417249,362
-8479943.6392,5314866.4816,2007/04/22 00:00:00+00,105 MCDONALD RD,0,4.0,22.0,,2007.0,16.0,-76.1766297956548,43.0190144073263,363
-8480597.4926,5319912.4198,2007/04/22 00:00:00+00,1440 W GENESEE ST,0,4.0,22.0,,2007.0,16.0,-76.1825034606827,43.0521463203476,364
-8477110.5767,5315106.64049999,2007/04/24 00:00:00+00,309 HOPE AVE,0,4.0,24.0,,2007.0,17.0,-76.1511799622086,43.0205917095483,365
-8477151.3488,5317907.70610001,2007/04/27 00:00:00+00,S CLINTON ST & W TAYLOR ST,0,4.0,27.0,,2007.0,17.0,-76.1515462242146,43.0389853995218,366
-8476996.3788,5320642.91970001,2007/04/27 00:00:00+00,400 PROSPECT AVE,0,4.0,27.0,,2007.0,17.0,-76.1501541050188,43.056941341316,367
-8477009.0561,5320664.19319999,2007/04/27 00:00:00+00,412 PROSPECT AVE,0,4.0,27.0,,2007.0,17.0,-76.1502679871423,43.0570809755232,368
-8478256.5226,5322013.26249999,2007/05/01 00:00:00+00,318 SUNSET AVE,0,5.0,1.0,,2007.0,18.0,-76.161474169376,43.0659352969239,369
-8480604.5688,5320745.4731,2007/05/02 00:00:00+00,1020 HIAWATHA BLVD W,0,5.0,2.0,,2007.0,18.0,-76.1825670272688,43.0576144745765,370
-8470657.9453,5319116.08029999,2007/05/06 00:00:00+00,117 PHILLIPS RD,0,5.0,6.0,,2007.0,18.0,-76.0932149881145,43.0469186993444,371
-8473050.9927,5319103.1947,2007/05/07 00:00:00+00,418 WESTMORELAND AVE,0,5.0,7.0,,2007.0,19.0,-76.1147120986649,43.0468341073454,372
-8472631.0121,5321576.03380001,2007/05/08 00:00:00+00,334 FOREST HILL DR,0,5.0,8.0,,2007.0,19.0,-76.1109393487448,43.0630657820018,373
-8477452.22379999,5321804.3223,2007/05/15 00:00:00+00,249 LILAC ST,0,5.0,15.0,,2007.0,20.0,-76.1542490303256,43.0645640472891,374
-8474584.8538,5318884.484,2007/05/17 00:00:00+00,1215 MADISON ST,0,5.0,17.0,,2007.0,20.0,-76.1284910073634,43.0453982871581,375
-8478507.8777,5320746.21489999,2007/05/18 00:00:00+00,412 SPENCER ST,0,5.0,18.0,,2007.0,20.0,-76.1637321306568,43.0576193435276,376
-8475554.251,5319125.99890001,2007/05/21 00:00:00+00,945 E GENESEE ST,0,5.0,21.0,,2007.0,21.0,-76.1371992505748,43.0469838133615,377
-8470385.418,5320158.327,2007/05/23 00:00:00+00,SMITH ST & POLK ST,0,5.0,23.0,,2007.0,21.0,-76.0907668337252,43.0537605036767,378
-8478315.90709999,5322040.8693,2007/05/23 00:00:00+00,SUNSET AVE & TURTLE ST,0,5.0,23.0,,2007.0,21.0,-76.1620076294159,43.0661164747685,379
-8469999.3107,5320369.1347,2007/05/24 00:00:00+00,102 HEADSON DR,0,5.0,24.0,,2007.0,21.0,-76.0872983728362,43.0551442531474,380
-8475458.1744,5320074.04459999,2007/05/29 00:00:00+00,500 HAWLEY AVE,0,5.0,29.0,,2007.0,22.0,-76.1363361797926,43.0532072621764,381
-8477653.9001,5317812.8544,2007/05/31 00:00:00+00,W TAYLOR ST & MIDLAND AVE,0,5.0,31.0,,2007.0,22.0,-76.156060719353,43.0383626293182,382
-8478913.8642,5319924.80650001,2007/06/01 00:00:00+00,626 PARK AVE,0,6.0,1.0,,2007.0,22.0,-76.1673791694377,43.052227630104,383
-8478092.6383,5319032.8851,2007/06/01 00:00:00+00,WYOMING ST & OTISCO ST,0,6.0,1.0,,2007.0,22.0,-76.1600019716609,43.0463725334883,384
-8473234.1643,5322336.45410001,2007/06/01 00:00:00+00,2208 JAMES ST,0,6.0,1.0,,2007.0,22.0,-76.1163575571439,43.0680563044649,385
-8471437.5689,5322846.2451,2007/06/07 00:00:00+00,217 LAMSON ST,0,6.0,7.0,,2007.0,23.0,-76.1002184660719,43.0714017575678,386
-8474630.0437,5318693.9471,2007/06/08 00:00:00+00,HARRISON ST & OSTROM AVE,0,6.0,8.0,,2007.0,23.0,-76.128896955142,43.0441473985713,387
-8480339.0963,5318968.7677,2007/06/09 00:00:00+00,S LOWELL AVE & WHITTIER AVE,0,6.0,9.0,,2007.0,23.0,-76.1801822472262,43.0459516076331,388
-8479660.5473,5317441.25310001,2007/06/10 00:00:00+00,1204 S GEDDES ST,0,6.0,10.0,,2007.0,23.0,-76.174086737849,43.0359227363833,389
-8479362.7968,5317293.9671,2007/06/12 00:00:00+00,231 ELLIOTT ST,0,6.0,12.0,,2007.0,24.0,-76.1714119995989,43.0349556459909,390
-8475319.2225,5313970.0489,2007/06/13 00:00:00+00,506 E BRIGHTON AVE,0,6.0,13.0,,2007.0,24.0,-76.1350879536373,43.0131265087665,391
-8480339.0963,5318968.7677,2007/06/14 00:00:00+00,S LOWELL AVE & WHITTIER AVE,0,6.0,14.0,,2007.0,24.0,-76.1801822472262,43.0459516076331,392
-8479542.2305,5319618.7333,2007/06/14 00:00:00+00,RICHMOND AVE & WALL ST,0,6.0,14.0,,2007.0,24.0,-76.1730238799509,43.050218448606,393
-8478350.6407,5317015.9853,2007/06/18 00:00:00+00,211 PALMER AVE,0,6.0,18.0,,2007.0,25.0,-76.1623196466535,43.0331303561168,394
-8474878.4613,5313687.9861,2007/06/15 00:00:00+00,201 AINSLEY DR,0,6.0,15.0,,2007.0,24.0,-76.1311285284112,43.0112737630736,395
-8479724.49279999,5318124.9685,2007/06/19 00:00:00+00,AMY ST & DELAWARE ST,0,6.0,19.0,,2007.0,25.0,-76.1746611700489,43.0404118609309,396
-8477188.1424,5319145.9342,2007/06/20 00:00:00+00,115 E JEFFERSON ST,0,6.0,20.0,,2007.0,25.0,-76.1518767467469,43.0471146851972,397
-8479312.429,5318947.6912,2007/06/20 00:00:00+00,W FAYETTE ST & S GEDDES ST,0,6.0,20.0,,2007.0,25.0,-76.1709595379532,43.0458132413826,398
-8474831.8052,5319024.4635,2007/06/21 00:00:00+00,COMSTOCK AVE & COMSTOCK PL,0,6.0,21.0,,2007.0,25.0,-76.1307094095339,43.0463172464895,399
-8477231.3519,5319395.8558,2007/06/21 00:00:00+00,100 W FAYETTE ST,0,6.0,21.0,,2007.0,25.0,-76.1522649042896,43.0487553540747,400
-8472043.6502,5318000.5505,2010/06/02 00:00:00+00,207 BRADFORD PKWY,0,6.0,2.0,,2010.0,22.0,-76.105662987024,43.0395949842234,401
-8478960.1433,5319345.5184,2009/05/04 00:00:00+00,732 ERIE BLVD W,0,5.0,4.0,,2009.0,18.0,-76.1677949016664,43.0484249059521,402
-8479574.1292,5319019.0289,2010/05/13 00:00:00+00,1153 W FAYETTE ST,0,5.0,13.0,,2010.0,19.0,-76.1733104308484,43.0462815688336,403
-8477629.5931,5317569.2929,2009/05/06 00:00:00+00,381 MIDLAND AVE,0,5.0,6.0,,2009.0,18.0,-76.1558423658569,43.0367634424687,404
-8479226.7823,5321291.26169999,2010/06/06 00:00:00+00,W BEAR ST & VAN RENSSELAER ST,0,6.0,6.0,,2010.0,23.0,-76.1701901605568,43.0611967615752,405
-8475523.31780001,5317359.47780001,2010/06/10 00:00:00+00,2 FORESTRY DR,0,6.0,10.0,,2010.0,23.0,-76.1369213729114,43.0353857958065,406
-8472672.0082,5322222.3642,2009/05/06 00:00:00+00,152 FOREST HILL DR,0,5.0,6.0,,2009.0,18.0,-76.111307622977,43.0673075757553,407
-8470394.0958,5320163.1803,2010/06/12 00:00:00+00,401 SMITH ST,0,6.0,12.0,,2010.0,24.0,-76.0908447877289,43.053792361267,408
-8477669.4411,5320100.8859,2009/05/06 00:00:00+00,WALLACE ST & HERALD PL,0,5.0,6.0,,2009.0,18.0,-76.1562003265313,43.0533834527777,409
-8474249.0989,5320079.9525,2010/06/14 00:00:00+00,1002 BURNET AVE,0,6.0,14.0,,2010.0,24.0,-76.1254748697795,43.0532460426237,410
-8482182.1522,5320144.0339,2009/05/08 00:00:00+00,238 HAYDEN AVE,0,5.0,8.0,,2009.0,19.0,-76.1967387000708,43.0536666821141,411
-8469814.8472,5317841.92019999,2010/06/14 00:00:00+00,LOCKWOOD RD & EDGEMONT DR,0,6.0,14.0,,2010.0,24.0,-76.0856413090221,43.0385534680474,412
-8476970.6054,5318990.77849999,2009/05/10 00:00:00+00,232 E ONONDAGA ST,0,5.0,10.0,,2009.0,19.0,-76.1499225786273,43.0460961071868,413
-8473812.6227,5319481.2919,2010/06/15 00:00:00+00,ERIE BLVD E & COLUMBUS AVE,0,6.0,15.0,,2010.0,24.0,-76.1215539373634,43.0493162092981,414
-8476970.6054,5318990.77849999,2009/05/11 00:00:00+00,232 E ONONDAGA ST,0,5.0,11.0,,2009.0,19.0,-76.1499225786273,43.0460961071868,415
-8473812.6227,5319481.2919,2010/06/16 00:00:00+00,ERIE BLVD E & COLUMBUS AVE,0,6.0,16.0,,2010.0,24.0,-76.1215539373634,43.0493162092981,416
-8476970.6054,5318990.77849999,2009/05/12 00:00:00+00,232 E ONONDAGA ST,0,5.0,12.0,,2009.0,19.0,-76.1499225786273,43.0460961071868,417
-8473581.1091,5319332.0596,2010/06/16 00:00:00+00,1815 E FAYETTE ST,0,6.0,16.0,,2010.0,24.0,-76.1194742153098,43.0483365531493,418
-8472334.0123,5316666.692,2009/05/13 00:00:00+00,201 CROYDEN RD,0,5.0,13.0,,2009.0,19.0,-76.1082713541476,43.030836742223,419
-8479574.1292,5319019.0289,2010/06/16 00:00:00+00,1153 W FAYETTE ST,0,6.0,16.0,,2010.0,24.0,-76.1733104308484,43.0462815688336,420
-8476207.8457,5324357.5765,2009/05/14 00:00:00+00,118 ARDMORE PL,0,5.0,14.0,,2009.0,20.0,-76.1430705916611,43.0813186475471,421
-8474513.3076,5314331.99049999,2010/06/17 00:00:00+00,THAYER ST & JAMESVILLE AVE,0,6.0,17.0,,2010.0,24.0,-76.1278482969136,43.0155038610664,422
-8474491.7662,5319478.5717,2009/05/24 00:00:00+00,E WASHINGTON ST & S BEECH ST,0,5.0,24.0,,2009.0,21.0,-76.127654787225,43.0492983523076,423
-8475586.5798,5310753.7672,2010/06/17 00:00:00+00,110 WINDEMERE RD,0,6.0,17.0,,2010.0,24.0,-76.1374896651264,42.9919968629147,424
-8476687.0739,5317659.67349999,2009/05/26 00:00:00+00,1210 S STATE ST,0,5.0,26.0,,2009.0,21.0,-76.1473755718275,43.0373568722656,425
-8480012.1205,5317725.17579999,2010/06/18 00:00:00+00,200 HERRIMAN ST,0,6.0,18.0,,2010.0,25.0,-76.1772449736394,43.0377869500966,426
-8469648.609,5317837.371,2009/05/27 00:00:00+00,402 LOCKWOOD RD,0,5.0,27.0,,2009.0,21.0,-76.0841479658634,43.0385235991841,427
-8479226.7823,5321291.26169999,2010/06/19 00:00:00+00,W BEAR ST & VAN RENSSELAER ST,0,6.0,19.0,,2010.0,25.0,-76.1701901605568,43.0611967615752,428
-8475739.1598,5322521.76830001,2009/05/28 00:00:00+00,SCOVILLE AVE & WADSWORTH ST,0,5.0,28.0,,2009.0,22.0,-76.1388603145869,43.0692724317295,429
-8474979.037,5319624.4562,2010/06/21 00:00:00+00,E WATER ST & WALNUT AVE,0,6.0,21.0,,2010.0,25.0,-76.1320320152964,43.0502560165133,430
-8472713.2697,5318583.455,2009/06/05 00:00:00+00,214 SCOTTHOLM BLVD,0,6.0,5.0,,2009.0,23.0,-76.1116782813379,43.0434219982257,431
-8471007.85909999,5319731.8057,2010/06/22 00:00:00+00,443 MOUNTAINVIEW AVE,0,6.0,22.0,,2010.0,25.0,-76.0963583172611,43.050960706734,432
-8477970.9786,5323613.9355,2009/05/12 00:00:00+00,3029 GRANT BLVD,0,5.0,12.0,,2009.0,19.0,-76.1589090839812,43.076439305486,433
-8481145.3763,5317072.4675,2010/06/23 00:00:00+00,VELASKO RD & ONONDAGA BLVD,0,6.0,23.0,,2010.0,25.0,-76.187425183699,43.0335012351074,434
-8473801.1577,5319321.24669999,2009/05/15 00:00:00+00,200 COLUMBUS AVE,0,5.0,15.0,,2009.0,20.0,-76.1214509455161,43.0482655697583,435
-8480134.7066,5317362.106,2010/06/28 00:00:00+00,317 LYDELL ST,0,6.0,28.0,,2010.0,26.0,-76.1783461833119,43.0354030527679,436
-8474882.109,5322733.58189999,2009/06/19 00:00:00+00,123 WOODLAWN TER,0,6.0,19.0,,2009.0,25.0,-76.1311612962578,43.0706624321598,437
-8472946.5462,5317392.3153,2010/06/30 00:00:00+00,967 WESTMORELAND AVE,0,6.0,30.0,,2010.0,26.0,-76.1137738397917,43.0356014089849,438
-8476686.3369,5317644.6045,2009/06/19 00:00:00+00,1214 S STATE ST,0,6.0,19.0,,2009.0,25.0,-76.1473689512439,43.037257931148,439
-8472929.7073,5316053.6838,2010/06/30 00:00:00+00,1418 WESTMORELAND AVE,0,6.0,30.0,,2010.0,26.0,-76.1136225733793,43.0268112527447,440
-8476688.60770001,5323162.65039999,2009/06/29 00:00:00+00,2351 GRANT BLVD,0,6.0,29.0,,2009.0,26.0,-76.1473893501874,43.0734780442718,441
-8479275.2717,5319885.21139999,2010/06/30 00:00:00+00,PARK AVE & N GEDDES ST,0,6.0,30.0,,2010.0,26.0,-76.1706257482482,43.0519677164367,442
-8480783.4507,5320002.2041,2009/07/07 00:00:00+00,1841 W FAYETTE ST,0,7.0,7.0,,2009.0,27.0,-76.1841739507171,43.0527356871135,443
-8471408.3464,5317577.57189999,2010/07/01 00:00:00+00,418 BROOKFORD RD,0,7.0,1.0,,2010.0,26.0,-76.099955955888,43.0368178017766,444
-8477832.3976,5321208.2821,2009/07/08 00:00:00+00,SPENCER ST & N CLINTON ST,0,7.0,8.0,,2009.0,27.0,-76.1576641896773,43.0606521379263,445
-8475099.6127,5320066.2851,2010/07/05 00:00:00+00,MANILLA ST & OAK ST,0,7.0,5.0,,2010.0,27.0,-76.1331151652385,43.0531563274787,446
-8476106.91300001,5320982.5525,2010/07/06 00:00:00+00,207 DOUGLAS ST,0,7.0,6.0,,2010.0,27.0,-76.1421638977904,43.0591705724597,447
-8479808.0129,5319056.4438,2010/07/07 00:00:00+00,106 MAGNOLIA ST,0,7.0,7.0,,2010.0,27.0,-76.1754114438726,43.0465271938367,448
-8472565.9327,5319112.9722,2010/07/08 00:00:00+00,245 FENWAY DR,0,7.0,8.0,,2010.0,27.0,-76.1103547305478,43.0468982951526,449
-8478963.8844,5317950.5775,2010/07/10 00:00:00+00,121 DAVIS ST,0,7.0,10.0,,2010.0,28.0,-76.1678285085395,43.039266879282,450
-8478932.5441,5317969.42980001,2010/07/09 00:00:00+00,108 DAVIS ST,0,7.0,9.0,,2010.0,28.0,-76.1675469738345,43.0393906569837,451
-8473507.1987,5318041.1671,2010/07/09 00:00:00+00,113 CONCORD PL,0,7.0,9.0,,2010.0,28.0,-76.11881026689,43.0398616570781,452
-8478709.3231,5322856.647,2010/07/11 00:00:00+00,PARK ST & EXCHANGE ST,0,7.0,11.0,,2010.0,28.0,-76.1655417454741,43.0714700171086,453
-8472535.87190001,5323416.365,2010/07/10 00:00:00+00,367 NORWOOD AVE,0,7.0,10.0,,2010.0,28.0,-76.1100846897869,43.0751428968265,454
-8473967.3781,5317074.84529999,2010/07/12 00:00:00+00,928 LANCASTER AVE,0,7.0,12.0,,2010.0,28.0,-76.1229441287746,43.033516848403,455
-8473842.94279999,5315736.0538,2010/07/15 00:00:00+00,LANCASTER AVE & MEADOWBROOK DR,0,7.0,15.0,,2010.0,28.0,-76.1218263074558,43.0247253428414,456
-8474931.5478,5317968.8058,2010/07/18 00:00:00+00,UNIVERSITY PL & COLLEGE PL,0,7.0,18.0,,2010.0,29.0,-76.1316054125545,43.0393865600188,457
-8474767.7366,5313673.6824,2010/07/18 00:00:00+00,230 AINSLEY DR,0,7.0,18.0,,2010.0,29.0,-76.1301338715078,43.01117980691,458
-8474532.2956,5313678.77890001,2010/07/18 00:00:00+00,294 AINSLEY DR,0,7.0,18.0,,2010.0,29.0,-76.1280188690197,43.0112132841099,459
-8476084.25560001,5318301.0689,2010/07/19 00:00:00+00,117 MONROE ST,0,7.0,19.0,,2010.0,29.0,-76.1419603629032,43.0415680441356,460
-8473570.18340001,5315930.97669999,2010/07/19 00:00:00+00,KENSINGTON PL & MEADOWBROOK DR,0,7.0,19.0,,2010.0,29.0,-76.1193760680768,43.0260054306044,461
-8480020.8452,5317898.5894,2010/07/19 00:00:00+00,100 HERRIMAN ST,0,7.0,19.0,,2010.0,29.0,-76.177323348953,43.0389255420488,462
-8473507.1987,5318041.1671,2010/07/21 00:00:00+00,113 CONCORD PL,0,7.0,21.0,,2010.0,29.0,-76.11881026689,43.0398616570781,463
-8476678.4024,5313004.56979999,2010/07/26 00:00:00+00,3419 MIDLAND AVE,0,7.0,26.0,,2010.0,30.0,-76.1472976744177,43.0067844721083,464
-8480004.0793,5317731.47269999,2010/07/28 00:00:00+00,HERRIMAN ST & FITCH ST,0,7.0,28.0,,2010.0,30.0,-76.1771727383108,43.0378282943958,465
-8476305.22149999,5310005.62029999,2010/07/27 00:00:00+00,SPAULDING AVE & S SALINA ST,0,7.0,27.0,,2010.0,30.0,-76.1439453333555,42.9870808041831,466
-8480004.0793,5317731.47269999,2009/07/28 00:00:00+00,HERRIMAN ST & FITCH ST,0,7.0,28.0,,2009.0,30.0,-76.1771727383108,43.0378282943958,467
-8476395.7866,5323317.4058,2010/07/29 00:00:00+00,166 HOOD AVE,0,7.0,29.0,,2010.0,30.0,-76.1447588934909,43.0744935407709,468
-8481089.391,5319821.3226,2010/07/29 00:00:00+00,117 CAYUGA ST,0,7.0,29.0,,2010.0,30.0,-76.1869222591922,43.0515483295868,469
-8470696.9512,5317969.66140001,2010/07/30 00:00:00+00,KIMBER RD & EUCLID AVE,0,7.0,30.0,,2010.0,31.0,-76.0935653840759,43.0393921775879,470
-8471420.3037,5319208.13469999,2010/08/02 00:00:00+00,MILNOR AVE & BALL AVE,0,8.0,2.0,,2010.0,31.0,-76.1000633701415,43.0475230190492,471
-8471420.3037,5319208.13469999,2010/06/12 00:00:00+00,MILNOR AVE & BALL AVE,0,6.0,12.0,,2010.0,24.0,-76.1000633701415,43.0475230190492,472
-8479944.3919,5314875.69939999,2010/08/03 00:00:00+00,MCDONALD RD & REINMAN RD,0,8.0,3.0,,2010.0,31.0,-76.1766365572739,43.0190749482265,473
-8474611.5985,5315594.90279999,2010/08/06 00:00:00+00,1100 COMSTOCK AVE,0,8.0,6.0,,2010.0,32.0,-76.1287312590912,43.0237983665041,474
-8477513.2969,5322234.84569999,2010/08/09 00:00:00+00,511 KIRKPATRICK ST,0,8.0,9.0,,2010.0,32.0,-76.1547976593174,43.0673894875478,475
-8477960.1902,5324338.7456,2010/08/10 00:00:00+00,SIXTH NORTH ST & HIAWATHA BLVD E,0,8.0,10.0,,2010.0,32.0,-76.158812170135,43.0811950948697,476
-8478347.9844,5323636.86080001,2010/08/09 00:00:00+00,617 HIAWATHA BLVD E,0,8.0,9.0,,2010.0,32.0,-76.1622957847046,43.0765897338475,477
-8471965.4828,5322051.0371,2010/08/10 00:00:00+00,208 S MIDLER AVE,0,8.0,10.0,,2010.0,32.0,-76.1049607973226,43.0661832038484,478
-8477963.7307,5317070.9375,2010/08/11 00:00:00+00,BELLEVUE AVE & SOUTH AVE,0,8.0,11.0,,2010.0,32.0,-76.1588439749877,43.0334911887001,479
-8474585.2905,5315601.6494,2010/08/12 00:00:00+00,1301 E COLVIN ST,0,8.0,12.0,,2010.0,32.0,-76.1284949303062,43.0238426735478,480
-8475420.1796,5320073.2782,2010/08/13 00:00:00+00,522 HAWLEY AVE,0,8.0,13.0,,2010.0,33.0,-76.135994866697,43.0532022313964,481
-8477581.4953,5321301.4365,2010/08/13 00:00:00+00,100 CATAWBA ST,0,8.0,13.0,,2010.0,33.0,-76.1554102959682,43.0612635419535,482
-8476006.701,5321188.85089999,2007/08/14 00:00:00+00,203 BEECHER ST,0,8.0,14.0,,2007.0,33.0,-76.1412636780778,43.0605246035798,483
-8479639.5226,5318340.36229999,2010/08/19 00:00:00+00,SEYMOUR ST & S WILBUR AVE,0,8.0,19.0,,2010.0,33.0,-76.1738978697554,43.041826021094,484
-8472368.098,5322536.87030001,2010/08/23 00:00:00+00,131 ASHDALE AVE,0,8.0,23.0,,2010.0,34.0,-76.1085775512004,43.0693715377716,485
-8478492.2498,5317030.2891,2010/08/24 00:00:00+00,701 BELLEVUE AVE,0,8.0,24.0,,2010.0,34.0,-76.1635917428425,43.0332242793506,486
-8477879.0467,5318520.05299999,2010/08/25 00:00:00+00,S WEST ST,0,8.0,25.0,,2010.0,34.0,-76.1580832456725,43.0430057489133,487
-8478902.532,5317367.8926,2010/08/31 00:00:00+00,143 FITCH ST,0,8.0,31.0,,2010.0,35.0,-76.1672773705531,43.0354410480073,488
-8476756.5609,5313797.9353,2010/08/31 00:00:00+00,114 RILL AVE,0,8.0,31.0,,2010.0,35.0,-76.147999784169,43.0119959773523,489
-8480791.3141,5316930.7877,2010/09/07 00:00:00+00,1830 BELLEVUE AVE,0,9.0,7.0,,2010.0,36.0,-76.1842445888411,43.0325709189953,490
-8481750.8878,5320653.86829999,2010/09/10 00:00:00+00,1014 MILTON AVE,0,9.0,10.0,,2010.0,37.0,-76.1928645860506,43.0570132053687,491
-8480641.6323,5316159.8484,2010/09/11 00:00:00+00,114 FAIRDALE AVE,0,9.0,11.0,,2010.0,37.0,-76.1828999743542,43.0275084311301,492
-8477625.6621,5314887.1809,2010/09/13 00:00:00+00,609 W BRIGHTON AVE,0,9.0,13.0,,2010.0,37.0,-76.1558070530831,43.0191503566295,493
-8476660.9382,5320397.2461,2010/09/18 00:00:00+00,511 HICKORY ST,0,9.0,18.0,,2010.0,38.0,-76.1471407908398,43.0553287750481,494
-8476182.85189999,5312353.903,2010/09/20 00:00:00+00,RONEY RD & S SALINA ST,0,9.0,20.0,,2010.0,38.0,-76.1428460685356,43.0025100043152,495
-8476771.9257,5314350.7797,2010/09/21 00:00:00+00,W CALTHROP AVE & MIDLAND AVE,0,9.0,21.0,,2010.0,38.0,-76.1481378085158,43.015627272242,496
-8474501.763,5317018.46649999,2010/09/22 00:00:00+00,BERKELEY DR & DORSET RD,0,9.0,22.0,,2010.0,38.0,-76.1277445900073,43.0331466484639,497
-8476427.37639999,5314314.5006,2010/09/27 00:00:00+00,1121 CANNON ST,0,9.0,27.0,,2010.0,39.0,-76.1450426694925,43.0153889837269,498
-8479270.611,5317581.89250001,2010/10/10 00:00:00+00,233 FITCH ST,0,10.0,10.0,,2010.0,41.0,-76.1705838804677,43.0368461705009,499
-8478501.7452,5317735.6939,2010/10/20 00:00:00+00,250 HOLLAND ST,0,10.0,20.0,,2010.0,42.0,-76.163677041472,43.0378560100111,500
-8482843.6475,5315692.7179,2010/10/22 00:00:00+00,116 RICHARD RD,0,10.0,22.0,,2010.0,43.0,-76.2026810134544,43.0244407458943,501
-8475337.2753,5320140.42760001,2010/10/25 00:00:00+00,428 LODI ST,0,10.0,25.0,,2010.0,43.0,-76.1352501246989,43.0536430099209,502
-8479537.2847,5318345.6586,2010/10/25 00:00:00+00,SEYMOUR ST & AMY ST,0,10.0,25.0,,2010.0,43.0,-76.1729794510736,43.0418607933485,503
-8476868.18880001,5322243.9989,2010/10/26 00:00:00+00,206 HERBERT ST,0,10.0,26.0,,2010.0,43.0,-76.1490025546561,43.0674495567824,504
-8481243.41039999,5316672.40850001,2010/10/26 00:00:00+00,115 AUSTIN AVE,0,10.0,26.0,,2010.0,43.0,-76.1883058390029,43.0308742799737,505
-8479653.7912,5316411.1161,2010/10/28 00:00:00+00,308 GORDON AVE,0,10.0,28.0,,2010.0,43.0,-76.1740260467701,43.029158463816,506
-8470772.4433,5320289.2201,2010/11/01 00:00:00+00,ERIE BLVD E & LIME ST,0,11.0,1.0,,2010.0,44.0,-76.0942435411485,43.0546196944581,507
-8469749.2997,5320414.602,2010/11/02 00:00:00+00,3057 ERIE BLVD E,0,11.0,2.0,,2010.0,44.0,-76.0850524858112,43.055442698078,508
-8469749.2997,5320414.602,2010/11/03 00:00:00+00,3057 ERIE BLVD E,0,11.0,3.0,,2010.0,44.0,-76.0850524858112,43.055442698078,509
-8472791.4891,5321679.11490001,2010/11/05 00:00:00+00,300 STAFFORD AVE,0,11.0,5.0,,2010.0,45.0,-76.1123809381633,43.0637423113451,510
-8473682.7311,5315579.1685,2010/11/07 00:00:00+00,527 BUCKINGHAM AVE,0,11.0,7.0,,2010.0,45.0,-76.1203871012678,43.0236950342842,511
-8472814.2189,5319064.5325,2010/11/07 00:00:00+00,248 CROLY ST,0,11.0,7.0,,2010.0,45.0,-76.1125851234307,43.046580295198,512
-8476184.6886,5312227.1127,2010/11/08 00:00:00+00,4710 S SALINA ST,0,11.0,8.0,,2010.0,45.0,-76.1428625678925,43.001677037914,513
-8474774.8118,5319963.084,2010/11/11 00:00:00+00,311 ELM ST,0,11.0,11.0,,2010.0,45.0,-76.1301974291108,43.0524788936173,514
-8474775.8104,5319982.2953,2010/11/17 00:00:00+00,315 ELM ST,0,11.0,17.0,,2010.0,46.0,-76.1302063996872,43.0526050012231,515
-8477460.4312,5321102.1664,2010/11/20 00:00:00+00,200 E DIVISION ST,0,11.0,20.0,,2010.0,47.0,-76.1543227586543,43.0599556570481,516
-8472532.9536,5323364.999,2010/11/20 00:00:00+00,353 NORWOOD AVE,0,11.0,20.0,,2010.0,47.0,-76.1100584742519,43.0748058413717,517
-8472669.2188,5322178.86649999,2010/11/23 00:00:00+00,164 FOREST HILL DR,0,11.0,23.0,,2010.0,47.0,-76.1112825653705,43.0670221144521,518
-8478161.26689999,5323968.2939,2010/11/25 00:00:00+00,FOURTH NORTH ST & HIAWATHA BLVD E,0,11.0,25.0,,2010.0,47.0,-76.1606184728639,43.0787644487803,519
-8472058.7205,5323511.4645,2010/11/27 00:00:00+00,375 N MIDLER AVE,0,11.0,27.0,,2010.0,48.0,-76.1057983658323,43.0757669196017,520
-8475258.9213,5314475.61500001,2010/11/28 00:00:00+00,602 IVY RIDGE DR,0,11.0,28.0,,2010.0,48.0,-76.1345462587412,43.0164472088436,521
-8475230.7321,5318858.78129999,2010/11/28 00:00:00+00,509 UNIVERSITY AVE,0,11.0,28.0,,2010.0,48.0,-76.1342930308491,43.0452295485541,522
-8472162.6585,5318374.4023,2010/11/30 00:00:00+00,105 BRADFORD PKWY,0,11.0,30.0,,2010.0,48.0,-76.1067320567723,43.0420495064938,523
-8477700.8121,5320973.3443,2009/07/08 00:00:00+00,700 N CLINTON ST,0,7.0,8.0,,2009.0,27.0,-76.1564821370191,43.0591101341181,524
-8472528.7844,5323291.61959999,2010/12/02 00:00:00+00,333 NORWOOD AVE,0,12.0,2.0,,2010.0,48.0,-76.1100210216911,43.0743243343004,525
-8479781.2761,5319615.85890001,2009/07/09 00:00:00+00,543 RICHMOND AVE,0,7.0,9.0,,2009.0,28.0,-76.1751712631117,43.0501995796336,526
-8475231.52600001,5319753.29110001,2010/12/02 00:00:00+00,100 UNIVERSITY AVE,0,12.0,2.0,,2010.0,48.0,-76.1343001625742,43.0511017455547,527
-8474495.4425,5320166.3558,2009/07/09 00:00:00+00,339 N BEECH ST,0,7.0,9.0,,2009.0,28.0,-76.1276878119898,43.0538132055862,528
-8478347.9844,5323636.86080001,2010/12/06 00:00:00+00,617 HIAWATHA BLVD E,0,12.0,6.0,,2010.0,49.0,-76.1622957847046,43.0765897338475,529
-8474780.30399999,5320068.7467,2009/07/11 00:00:00+00,333 ELM ST,0,7.0,11.0,,2009.0,28.0,-76.1302467663828,43.0531724858507,530
-8478347.9844,5323636.86080001,2010/12/06 00:00:00+00,617 HIAWATHA BLVD E,0,12.0,6.0,,2010.0,49.0,-76.1622957847046,43.0765897338475,531
-8476409.1721,5313977.24179999,2009/07/13 00:00:00+00,151 W MATSON AVE,0,7.0,13.0,,2009.0,28.0,-76.1448791374833,43.0131737550122,532
-8470671.9765,5320145.9476,2010/12/07 00:00:00+00,123 POLK ST,0,12.0,7.0,,2010.0,49.0,-76.0933410325287,43.0536792438707,533
-8476287.4835,5319708.0148,2009/07/14 00:00:00+00,100 N MCBRIDE ST,0,7.0,14.0,,2009.0,28.0,-76.1437859901905,43.0508045333042,534
-8475886.7105,5312350.52269999,2010/12/09 00:00:00+00,306 SENECA DR,0,12.0,9.0,,2010.0,49.0,-76.1401857850768,43.0024877971136,535
-8475619.2425,5311111.0612,2009/07/20 00:00:00+00,300 SUNRISE DR,0,7.0,20.0,,2009.0,29.0,-76.1377830791527,42.9943444961117,536
-8470022.97280001,5318789.9415,2010/12/14 00:00:00+00,104 BEAUMONT PL,0,12.0,14.0,,2010.0,50.0,-76.0875109330971,43.0447776119673,537
-8481583.6357,5320809.52349999,2009/07/21 00:00:00+00,829 EMERSON AVE,0,7.0,21.0,,2009.0,29.0,-76.1913621348733,43.0580348806298,538
-8477514.0005,5315173.0897,2010/12/14 00:00:00+00,84 ELMHURST AVE,0,12.0,14.0,,2010.0,50.0,-76.1548039798638,43.0210281237394,539
-8480871.0823,5320149.5857,2009/07/20 00:00:00+00,1900 W FAYETTE ST,0,7.0,20.0,,2009.0,29.0,-76.1849611587736,43.0537031247889,540
-8477832.3976,5321208.2821,2010/12/15 00:00:00+00,N CLINTON ST & SPENCER ST,0,12.0,15.0,,2010.0,50.0,-76.1576641896773,43.0606521379263,541
-8477983.3749,5317463.23919999,2009/07/22 00:00:00+00,314 SOUTH AVE,0,7.0,22.0,,2009.0,29.0,-76.1590204418387,43.0360670973783,542
-8477544.6729,5322213.7356,2010/12/17 00:00:00+00,1311 PARK ST,0,12.0,17.0,,2010.0,51.0,-76.155079514721,43.0672509491566,543
-8476827.3285,5314726.22709999,2009/07/22 00:00:00+00,2202 MIDLAND AVE,0,7.0,22.0,,2009.0,29.0,-76.148635500336,43.018093232906,544
-8476531.838,5320134.63940001,2010/12/18 00:00:00+00,JAMES ST & N TOWNSEND ST,0,12.0,18.0,,2010.0,51.0,-76.1459810640114,43.0536050154507,545
-8481563.9609,5320795.20889999,2009/07/23 00:00:00+00,827 EMERSON AVE,0,7.0,23.0,,2009.0,30.0,-76.1911853931378,43.0579409244879,546
-8473107.29629999,5319916.5134,2009/07/28 00:00:00+00,200 PEAT ST,0,7.0,28.0,,2009.0,30.0,-76.1152178825092,43.0521731918926,547
-8477990.0104,5317489.1878,2009/08/17 00:00:00+00,706 TALLMAN ST,0,8.0,17.0,,2009.0,33.0,-76.1590800495494,43.0362374757588,548
-8480799.3562,5317713.8511,2009/08/19 00:00:00+00,800 GRAND AVE,0,8.0,19.0,,2009.0,33.0,-76.1843168322546,43.0377125941077,549
-8471578.00180001,5322494.0752,2009/08/19 00:00:00+00,LYNWOOD AVE & JAMES ST,0,8.0,19.0,,2009.0,33.0,-76.1014799962766,43.0690906968717,550
-8475473.3066,5314868.2191,2009/08/20 00:00:00+00,102 STEVENS PL,0,8.0,20.0,,2009.0,34.0,-76.136472114658,43.0190258189274,551
-8476289.7362,5317819.8685,2009/08/23 00:00:00+00,S MCBRIDE ST & BURT ST,0,8.0,23.0,,2009.0,34.0,-76.1438062265389,43.0384086821882,552
-8478597.3314,5316714.0748,2009/08/24 00:00:00+00,327 ONONDAGA AVE,0,8.0,24.0,,2009.0,34.0,-76.1645357069161,43.0311478836152,553
-8479558.7234,5319363.79939999,2009/09/04 00:00:00+00,101 WALL ST,0,9.0,4.0,,2009.0,36.0,-76.1731720381924,43.0485449147823,554
-8478256.3581,5319570.45819999,2009/09/04 00:00:00+00,530 ERIE BLVD W,0,9.0,4.0,,2009.0,36.0,-76.1614726916474,43.0499015463845,555
-8476382.8509,5320239.9653,2009/09/05 00:00:00+00,401 N MCBRIDE ST,0,9.0,5.0,,2009.0,36.0,-76.1446426901207,43.0542963841751,556
-8471005.1162,5317806.8666,2009/09/07 00:00:00+00,EUCLID AVE & GUILFORD RD,0,9.0,7.0,,2009.0,36.0,-76.0963336773712,43.0383233148563,557
-8475145.83320001,5315889.1491,2009/09/11 00:00:00+00,E COLVIN ST & HUGHES PL,0,9.0,11.0,,2009.0,37.0,-76.1335303710544,43.0257307447648,558
-8475123.21289999,5315839.09630001,2009/09/11 00:00:00+00,121 HUGHES PL,0,9.0,11.0,,2009.0,37.0,-76.1333271694421,43.0254020416366,559
-8474026.6735,5319483.18070001,2009/09/13 00:00:00+00,ERIE BLVD E & CHERRY ST,0,9.0,13.0,,2009.0,37.0,-76.1234767884156,43.0493286084877,560
-8478495.7676,5315458.6616,2009/09/26 00:00:00+00,1629 W COLVIN ST,0,9.0,26.0,,2009.0,39.0,-76.1636233437775,43.0229036208602,561
-8476673.4333,5317551.2353,2009/10/01 00:00:00+00,S STATE ST & PAVILION TER,0,10.0,1.0,,2009.0,40.0,-76.1472530362329,43.0366448774219,562
-8476153.2714,5323423.3476,2009/10/03 00:00:00+00,BUTTERNUT ST & DALE ST,0,10.0,3.0,,2009.0,40.0,-76.142580342383,43.0751887153848,563
-8472049.7702,5318011.60809999,2009/10/05 00:00:00+00,205 BRADFORD PKWY,0,10.0,5.0,,2009.0,40.0,-76.1057179639194,43.0396675842544,564
-8472049.7702,5318011.60809999,2009/10/05 00:00:00+00,205 BRADFORD PKWY,0,10.0,5.0,,2009.0,40.0,-76.1057179639194,43.0396675842544,565
-8481751.6099,5320850.9692,2009/10/06 00:00:00+00,867 EMERSON AVE,0,10.0,6.0,,2009.0,40.0,-76.1928710727853,43.0583069152273,566
-8473443.87769999,5319600.38929999,2009/10/09 00:00:00+00,ERIE BLVD E & LOMBARD AVE,0,10.0,9.0,,2009.0,41.0,-76.1182414446689,43.0500980294864,567
-8470385.418,5320158.327,2009/10/23 00:00:00+00,SMITH ST & POLK ST,0,10.0,23.0,,2009.0,43.0,-76.0907668337252,43.0537605036767,568
-8476984.4484,5315293.0617,2009/10/23 00:00:00+00,1812 MIDLAND AVE,0,10.0,23.0,,2009.0,43.0,-76.1500469324121,43.021816048369,569
-8476430.87610001,5312822.71319999,2009/10/23 00:00:00+00,166 W GLEN AVE,0,10.0,23.0,,2009.0,43.0,-76.1450741078326,43.0055898196465,570
-8477582.0423,5319732.9637,2009/11/03 00:00:00+00,100 N FRANKLIN ST,0,11.0,3.0,,2009.0,44.0,-76.1554152097528,43.0509683083207,571
-8472345.70379999,5316642.66049999,2009/11/09 00:00:00+00,210 CROYDEN RD,0,11.0,9.0,,2009.0,45.0,-76.108376380679,43.0306789376413,572
-8479256.0907,5314083.29839999,2009/11/10 00:00:00+00,421 MITCHELL AVE,0,11.0,10.0,,2009.0,45.0,-76.1704534423935,43.0138703788825,573
-8481483.12070001,5319043.8825,2009/11/12 00:00:00+00,210 AVERY AVE,0,11.0,12.0,,2009.0,46.0,-76.1904591932655,43.0464447302928,574
-8471519.47900001,5320169.4727,2009/11/16 00:00:00+00,2600 ERIE BLVD E,0,11.0,16.0,,2009.0,46.0,-76.1009542770195,43.0538336652419,575
-8476596.2362,5323891.91139999,2009/11/16 00:00:00+00,DALE ST & COURT ST,0,11.0,16.0,,2009.0,46.0,-76.1465595628847,43.0782632680141,576
-8476881.76239999,5319910.5037,2009/11/22 00:00:00+00,325 JAMES ST,0,11.0,22.0,,2009.0,47.0,-76.1491244883794,43.0521337425227,577
-8471783.1633,5321408.0675,2009/11/23 00:00:00+00,SUNNYCREST RD & NICHOLS AVE,0,11.0,23.0,,2009.0,47.0,-76.1033229933882,43.0619633900086,578
-8475514.3029,5311326.0581,2009/11/26 00:00:00+00,138 THURLOW DR,0,11.0,26.0,,2009.0,48.0,-76.1368403906868,42.995757109865,579
-8478293.5563,5314979.6463,2009/11/28 00:00:00+00,218 CLYDE AVE,0,11.0,28.0,,2009.0,48.0,-76.1618068487634,43.0197576491763,580
-8471864.30819999,5319910.0591,2009/11/29 00:00:00+00,212 SEELEY RD,0,11.0,29.0,,2009.0,48.0,-76.1040519304271,43.0521308240416,581
-8474578.9252,5315246.2019,2009/11/30 00:00:00+00,COMSTOCK AVE & VINCENT ST,0,11.0,30.0,,2009.0,48.0,-76.1284377498435,43.0215082945083,582
-8470312.2393,5318483.2743,2009/12/01 00:00:00+00,307 E GENESEE PKWY,0,12.0,1.0,,2009.0,48.0,-76.0901094582784,43.0427642866464,583
-8476686.5939,5320412.44229999,2009/12/02 00:00:00+00,518 N TOWNSEND ST,0,12.0,2.0,,2009.0,48.0,-76.1473712599142,43.0554285219553,584
-8476686.5939,5320412.44229999,2009/12/03 00:00:00+00,518 N TOWNSEND ST,0,12.0,3.0,,2009.0,49.0,-76.1473712599142,43.0554285219553,585
-8475300.7629,5320610.5117,2009/12/04 00:00:00+00,360 GREEN ST,0,12.0,4.0,,2009.0,49.0,-76.1349221282291,43.056728622281,586
-8470312.658,5318657.3213,2009/12/03 00:00:00+00,225 DEFOREST RD,0,12.0,3.0,,2009.0,49.0,-76.0901132195245,43.0439069446115,587
-8474734.3635,5314704.0135,2009/12/04 00:00:00+00,923 JAMESVILLE AVE,0,12.0,4.0,,2009.0,49.0,-76.1298340758497,43.0179473354275,588
-8477631.64660001,5315621.8865,2009/12/06 00:00:00+00,125 ROCKLAND AVE,0,12.0,6.0,,2009.0,49.0,-76.1558608127613,43.0239755767551,589
-8476023.28,5314564.80119999,2009/12/06 00:00:00+00,3226 S SALINA ST,0,12.0,6.0,,2009.0,49.0,-76.1414126097688,43.0170329902109,590
-8474236.616,5314078.87809999,2009/12/11 00:00:00+00,121 TEJAH AVE,0,12.0,11.0,,2009.0,50.0,-76.1253627339809,43.013841344671,591
-8474784.514,5312552.5492,2009/12/12 00:00:00+00,911 E BRIGHTON AVE,0,12.0,12.0,,2009.0,50.0,-76.1302845854563,43.0038150152763,592
-8472155.1734,5318283.9867,2009/12/14 00:00:00+00,115 BRADFORD PKWY,0,12.0,14.0,,2009.0,50.0,-76.1066648169749,43.041455892291,593
-8470593.04030001,5321451.95569999,2009/12/14 00:00:00+00,427 CLOVER RIDGE DR,0,12.0,14.0,,2009.0,50.0,-76.0926319365794,43.0622514377991,594
-8481388.1854,5320539.17109999,2009/12/17 00:00:00+00,800 EMERSON AVE,0,12.0,17.0,,2009.0,51.0,-76.1896063749555,43.0562603555612,595
-8475166.8084,5323995.1063,2009/12/19 00:00:00+00,221 RIVOLI AVE,0,12.0,19.0,,2009.0,51.0,-76.1337187944818,43.0789403763151,596
-8476411.3137,5313859.2539,2009/12/23 00:00:00+00,200 HALL AVE,0,12.0,23.0,,2009.0,51.0,-76.1448983758034,43.0123987521145,597
-8479087.4429,5317317.5664,2009/12/27 00:00:00+00,ELLIOTT ST & PUTNAM ST,0,12.0,27.0,,2009.0,52.0,-76.1689384534298,43.035110601705,598
-8477686.5584,5314350.32600001,2009/12/28 00:00:00+00,159 VALE ST,0,12.0,28.0,,2009.0,52.0,-76.1563540938534,43.0156242922538,599
-8476242.6654,5320088.446,2009/12/28 00:00:00+00,222 HAWLEY AVE,0,12.0,28.0,,2009.0,52.0,-76.1433833823481,43.0533017953404,600
-8478790.0321,5319389.6545,2009/12/30 00:00:00+00,ERIE BLVD W & VAN RENSSELAER ST,0,12.0,30.0,,2009.0,52.0,-76.1662667667568,43.0487146447194,601
-8479485.0949,5316102.6926,2008/01/04 00:00:00+00,125 ROBINEAU RD,0,1.0,4.0,,2008.0,1.0,-76.1725106221234,43.0271330924212,602
-8478624.46129999,5317375.08400001,2008/01/07 00:00:00+00,119 DELAWARE ST,0,1.0,7.0,,2008.0,1.0,-76.1647794189543,43.0354882672336,603
-8475523.31780001,5317359.47780001,2008/01/07 00:00:00+00,2 FORESTRY DR,0,1.0,7.0,,2008.0,1.0,-76.1369213729114,43.0353857958065,604
-8477888.3732,5318790.8361,2008/01/08 00:00:00+00,FABIUS ST & S WEST ST,0,1.0,8.0,,2008.0,2.0,-76.1581670270475,43.0447834850805,605
-8476648.474,5323843.47120001,2008/01/09 00:00:00+00,1420 COURT ST,0,1.0,9.0,,2008.0,2.0,-76.1470288230262,43.077945427425,606
-8477247.5593,5322739.252,2008/01/12 00:00:00+00,1005 FIRST NORTH ST,0,1.0,12.0,,2008.0,2.0,-76.152410497841,43.0706996410533,607
-8477122.84789999,5317586.3633,2008/01/14 00:00:00+00,1054 S CLINTON ST,0,1.0,14.0,,2008.0,2.0,-76.1512901962737,43.0368755254128,608
-8469195.5453,5317909.3002,2008/01/19 00:00:00+00,3906 E GENESEE ST,0,1.0,19.0,,2008.0,3.0,-76.0800780253995,43.0389958658904,609
-8473604.7527,5316586.165,2008/01/23 00:00:00+00,504 BROAD ST,0,1.0,23.0,,2008.0,4.0,-76.1196866093823,43.0303079542592,610
-8477825.677,5324592.09849999,2008/01/22 00:00:00+00,HIAWATHA BLVD E & SEVENTH NORTH ST,0,1.0,22.0,,2008.0,4.0,-76.1576038175003,43.0828573646526,611
-8474424.8666,5315149.9072,2010/01/12 00:00:00+00,129 GOODRICH AVE,0,1.0,12.0,,2010.0,2.0,-76.1270538178932,43.0208758698587,612
-8471754.7027,5320926.506,2008/01/23 00:00:00+00,NICHOLS AVE & BURNET AVE,0,1.0,23.0,,2008.0,4.0,-76.1030673274684,43.0588027083814,613
-8476403.7823,5315738.78740001,2010/12/19 00:00:00+00,2315 S SALINA ST,0,12.0,19.0,,2010.0,51.0,-76.1448307200861,43.024743294985,614
-8477562.0195,5311813.3114,2010/01/11 00:00:00+00,203 MERRITT AVE,0,1.0,11.0,,2010.0,2.0,-76.1552353418801,42.9989584345029,615
-8473286.5044,5319152.0596,2010/12/19 00:00:00+00,406 LEXINGTON AVE,0,12.0,19.0,,2010.0,51.0,-76.1168277362619,43.0471548973447,616
-8477966.4456,5319596.11969999,2010/01/11 00:00:00+00,S WEST ST & W WATER ST,0,1.0,11.0,,2010.0,2.0,-76.1588683633493,43.0500700016792,617
-8475092.3812,5322553.12609999,2010/12/21 00:00:00+00,SEDGWICK DR & SCOVILLE AVE,0,12.0,21.0,,2010.0,51.0,-76.1330502035687,43.0694782153834,618
-8474348.2584,5322882.0437,2010/01/11 00:00:00+00,WHEATON RD & MERTENS AVE,0,1.0,11.0,,2010.0,2.0,-76.1263656347237,43.0716366754842,619
-8479877.43829999,5318935.924,2010/12/21 00:00:00+00,154 NELSON ST,0,12.0,21.0,,2010.0,51.0,-76.1760351028518,43.0457359901215,620
-8472505.4758,5323175.1658,2010/01/13 00:00:00+00,300 NORWOOD AVE,0,1.0,13.0,,2010.0,2.0,-76.1098116369748,43.0735601702698,621
-8472464.70379999,5316713.91859999,2010/12/22 00:00:00+00,1335 BROAD ST,0,12.0,22.0,,2010.0,51.0,-76.1094453758671,43.0311468579231,622
-8472055.8985,5318713.07089999,2010/01/15 00:00:00+00,200 EAST AVE,0,1.0,15.0,,2010.0,3.0,-76.1057730153749,43.0442729488587,623
-8477902.581,5314601.6192,2010/12/23 00:00:00+00,133 BERTRAM PL,0,12.0,23.0,,2010.0,51.0,-76.1582946578864,43.0172748118498,624
-8476952.7094,5323280.7155,2010/01/16 00:00:00+00,1017 KIRKPATRICK ST,0,1.0,16.0,,2010.0,3.0,-76.1497618161241,43.0742527825441,625
-8477954.1306,5314732.5785,2010/12/27 00:00:00+00,927 W LAFAYETTE AVE,0,12.0,27.0,,2010.0,52.0,-76.1587577358221,43.018134948424,626
-8478048.9122,5315934.6839,2010/01/17 00:00:00+00,130 W BISSELL ST,0,1.0,17.0,,2010.0,3.0,-76.1596091734214,43.0260297760812,627
-8476075.6039,5319197.8106,2010/12/28 00:00:00+00,711 E GENESEE ST,0,12.0,28.0,,2010.0,52.0,-76.1418826433597,43.0474552435841,628
-8474211.7299,5322273.1601,2010/01/18 00:00:00+00,315 RUGBY RD,0,1.0,18.0,,2010.0,3.0,-76.125139178341,43.0676409310963,629
-8478230.3865,5317054.1739,2010/12/28 00:00:00+00,RICH ST & BELLEVUE AVE,0,12.0,28.0,,2010.0,52.0,-76.1612393847951,43.0333811141128,630
-8476952.7094,5323280.7155,2010/01/18 00:00:00+00,1017 KIRKPATRICK ST,0,1.0,18.0,,2010.0,3.0,-76.1497618161241,43.0742527825441,631
-8477069.0362,5319384.6057,2010/12/29 00:00:00+00,E FAYETTE ST & S WARREN ST,0,12.0,29.0,,2010.0,52.0,-76.150806797548,43.0486815011016,632
-8477220.8011,5320383.7367,2009/01/19 00:00:00+00,321 N SALINA ST,0,1.0,19.0,,2009.0,3.0,-76.1521701248406,43.0552401000544,633
-8474334.7743,5314591.5183,2010/12/30 00:00:00+00,245 HOLMES ST,0,12.0,30.0,,2010.0,52.0,-76.1262445049924,43.017208468955,634
-8481454.0907,5316222.33909999,2010/01/22 00:00:00+00,1900 GLENWOOD AVE,0,1.0,22.0,,2010.0,4.0,-76.1901984123385,43.0279188011808,635
-8477064.2297,5319376.154,2010/12/30 00:00:00+00,200 E FAYETTE ST,0,12.0,30.0,,2010.0,52.0,-76.1507636200239,43.0486260185876,636
-8480524.4814,5318720.6491,2010/01/20 00:00:00+00,254 COLERIDGE AVE,0,1.0,20.0,,2010.0,3.0,-76.181847589914,43.0443227006774,637
-8477484.427,5315174.28189999,2010/12/30 00:00:00+00,74 ELMHURST AVE,0,12.0,30.0,,2010.0,52.0,-76.1545383165932,43.0210359536473,638
-8476679.592,5309995.94939999,2010/01/22 00:00:00+00,190 SPAULDING AVE,0,1.0,22.0,,2010.0,4.0,-76.1473083607763,42.9870172543131,639
-8474342.4622,5314590.98329999,2010/12/30 00:00:00+00,239 HOLMES ST,0,12.0,30.0,,2010.0,52.0,-76.1263135665732,43.0172049550632,640
-8479679.8118,5318666.5863,2010/01/26 00:00:00+00,227 MAGNOLIA ST,0,1.0,26.0,,2010.0,4.0,-76.1742597937969,43.0439677708378,641
-8473855.4586,5320236.8206,2010/12/31 00:00:00+00,BURNET AVE & TEALL AVE,0,12.0,31.0,,2010.0,53.0,-76.1219387388002,43.0542757421931,642
-8479679.8118,5318666.5863,2010/01/26 00:00:00+00,227 MAGNOLIA ST,0,1.0,26.0,,2010.0,4.0,-76.1742597937969,43.0439677708378,643
-8479739.0061,5317952.9029,2009/01/07 00:00:00+00,215 GRAND AVE,0,1.0,7.0,,2009.0,1.0,-76.1747915452411,43.0392821470701,644
-8476097.0017,5320093.89730001,2006/12/09 00:00:00+00,HAWLEY AVE & CATHERINE ST,0,12.0,9.0,,2006.0,49.0,-76.1420748630676,43.0533375785344,645
-8474784.514,5312552.5492,2010/01/27 00:00:00+00,911 E BRIGHTON AVE,0,1.0,27.0,,2010.0,4.0,-76.1302845854563,43.0038150152763,646
-8478680.6734,5322621.92480001,2010/01/28 00:00:00+00,201 WOLF ST,0,1.0,28.0,,2010.0,4.0,-76.1652843808402,43.0699297002442,647
-8472814.2189,5319064.5325,2010/01/31 00:00:00+00,248 CROLY ST,0,1.0,31.0,,2010.0,5.0,-76.1125851234307,43.046580295198,648
-8477754.9266,5317222.07229999,2010/02/01 00:00:00+00,LINCOLN AVE & CLOVER ST,0,2.0,1.0,,2010.0,5.0,-76.1569682558435,43.0344835740652,649
-8471060.788,5320268.39949999,2010/02/02 00:00:00+00,ERIE BLVD,0,2.0,2.0,,2010.0,5.0,-76.0968337856596,43.054483027497,650
-8471477.3227,5321251.9322,2010/02/03 00:00:00+00,MOSLEY DR & CALEB AVE,0,2.0,3.0,,2010.0,5.0,-76.1005755805333,43.0609386291456,651
-8479862.7862,5319299.9239,2010/02/03 00:00:00+00,1025 ERIE BLVD W,0,2.0,3.0,,2010.0,5.0,-76.1759034807981,43.0481255918383,652
-8479803.863,5319304.70449999,2010/02/04 00:00:00+00,1000 ERIE BLVD W,0,2.0,4.0,,2010.0,5.0,-76.1753741646866,43.0481569751011,653
-8469859.44229999,5318128.7323,2010/02/03 00:00:00+00,504 HILLSBORO PKWY,0,2.0,3.0,,2010.0,5.0,-76.0860419136213,43.0404365723028,654
-8469656.3863,5317846.3435,2010/12/07 00:00:00+00,HILLSBORO PKWY & LOCKWOOD RD,0,12.0,7.0,,2010.0,49.0,-76.084217830538,43.0385825102702,655
-8472553.9742,5317525.94839999,2010/02/08 00:00:00+00,MEADOWBROOK DR & EUCLID AVE,0,2.0,8.0,,2010.0,6.0,-76.1102473055145,43.0364788448685,656
-8482411.2366,5316110.07320001,2010/02/09 00:00:00+00,212 HIGHRIDGE DR,0,2.0,9.0,,2010.0,6.0,-76.1987966002495,43.0271815605076,657
-8474970.4013,5315224.1115,2010/02/10 00:00:00+00,LORRAINE AVE & VINCENT ST,0,2.0,10.0,,2010.0,6.0,-76.1319544394834,43.0213632142699,658
-8473628.3158,5321057.7114,2010/02/11 00:00:00+00,706 HIXSON AVE,0,2.0,11.0,,2010.0,6.0,-76.119898280311,43.0596638782918,659
-8472630.57139999,5321569.4378,2010/02/12 00:00:00+00,336 FOREST HILL DR,0,2.0,12.0,,2010.0,7.0,-76.1109353898693,43.0630224916823,660
-8470190.5463,5319208.1196,2010/02/13 00:00:00+00,CARLTON DR & SALT SPRINGS RD,0,2.0,13.0,,2010.0,7.0,-76.0890162714597,43.0475229199211,661
-8477620.9591,5322498.1593,2010/02/14 00:00:00+00,806 CARBON ST,0,2.0,14.0,,2010.0,7.0,-76.1557648053153,43.069117498648,662
-8481270.21010001,5320303.9985,2010/02/16 00:00:00+00,700 EMERSON AVE,0,2.0,16.0,,2010.0,7.0,-76.1885465848042,43.0547167000761,663
-8470534.3221,5318476.01070001,2010/02/17 00:00:00+00,E GENESEE ST & ALBERT RD,0,2.0,17.0,,2010.0,7.0,-76.0921044620142,43.0427165990051,664
-8477268.6014,5319379.25009999,2010/02/21 00:00:00+00,127 W FAYETTE ST,0,2.0,21.0,,2010.0,8.0,-76.1525995222414,43.0486463434288,665
-8472385.81939999,5317846.591,2010/02/22 00:00:00+00,1221 MEADOWBROOK DR,0,2.0,22.0,,2010.0,8.0,-76.1087367452451,43.0385841352896,666
-8480073.32139999,5319636.70959999,2010/02/25 00:00:00+00,207 LAKEVIEW AVE,0,2.0,25.0,,2010.0,8.0,-76.1777947506781,43.0503364537309,667
-8473593.1697,5319332.26119999,2010/02/26 00:00:00+00,1811 E FAYETTE ST,0,2.0,26.0,,2010.0,9.0,-76.1195825575229,43.048337876591,668
-8475024.7987,5322828.52850001,2010/02/25 00:00:00+00,634 MERTENS AVE,0,2.0,25.0,,2010.0,8.0,-76.1324430996418,43.0712854971923,669
-8480051.0432,5319630.51110001,2010/02/25 00:00:00+00,LAKEVIEW AVE & RICHMOND AVE,0,2.0,25.0,,2010.0,8.0,-76.1775946222025,43.0502957638056,670
-8476866.08269999,5320710.96,2010/02/26 00:00:00+00,E LAUREL ST & N TOWNSEND ST,0,2.0,26.0,,2010.0,9.0,-76.1489836352378,43.0573879405861,671
-8471288.3782,5317544.4967,2010/02/28 00:00:00+00,438 BROOKFORD RD,0,2.0,28.0,,2010.0,9.0,-76.0988782632113,43.0366006321465,672
-8480250.1699,5315606.13009999,2010/02/27 00:00:00+00,1155 GLENWOOD AVE,0,2.0,27.0,,2010.0,9.0,-76.1793834077834,43.0238720996959,673
-8477373.8354,5319669.81219999,2010/03/18 00:00:00+00,S CLINTON ST & W WATER ST,0,3.0,18.0,,2010.0,11.0,-76.1535448553475,43.0505537546088,674
-8480304.7944,5317522.2849,2010/03/19 00:00:00+00,412 HARTSON ST,0,3.0,19.0,,2010.0,12.0,-76.1798741080158,43.0364547904688,675
-8476691.5705,5319083.02929999,2010/03/21 00:00:00+00,555 S STATE ST,0,3.0,21.0,,2010.0,12.0,-76.1474159654726,43.0467017243353,676
-8476613.33410001,5323515.3707,2010/03/22 00:00:00+00,248 HOOD AVE,0,3.0,22.0,,2010.0,12.0,-76.1467131559337,43.0757925511228,677
-8481514.8799,5320747.95219999,2010/03/23 00:00:00+00,821 EMERSON AVE,0,3.0,23.0,,2010.0,12.0,-76.1907444910132,43.0576307466385,678
-8473087.5355,5319639.95879999,2010/03/25 00:00:00+00,200 WESTMORELAND AVE,0,3.0,25.0,,2010.0,12.0,-76.1150403682226,43.0503577830265,679
-8474792.10650001,5312528.8804,2010/03/27 00:00:00+00,916 E BRIGHTON AVE,0,3.0,27.0,,2010.0,13.0,-76.1303527900443,43.0036595239834,680
-8477262.87830001,5319379.2327,2010/03/28 00:00:00+00,123 W FAYETTE ST,0,3.0,28.0,,2010.0,13.0,-76.1525481107594,43.0486462292038,681
-8472679.6895,5320664.4245,2010/04/01 00:00:00+00,1811 BURNET AVE,0,4.0,1.0,,2010.0,13.0,-76.1113766252689,43.0570824937198,682
-8474730.2819,5312420.86780001,2010/04/03 00:00:00+00,985 E BRIGHTON AVE,0,4.0,3.0,,2010.0,14.0,-76.1297974102131,43.0029499342675,683
-8474723.25929999,5319618.7676,2010/04/05 00:00:00+00,E WATER ST & PINE ST,0,4.0,5.0,,2010.0,14.0,-76.1297343251239,43.050218673768,684
-8478116.7672,5321571.165,2010/04/06 00:00:00+00,N CLINTON ST & W COURT ST,0,4.0,6.0,,2010.0,14.0,-76.1602187252575,43.0630338275009,685
-8475860.0386,5319230.04729999,2010/04/06 00:00:00+00,WELLINGTON PL & FORMAN AVE,0,4.0,6.0,,2010.0,14.0,-76.1399461873226,43.0476668702416,686
-8478116.7672,5321571.165,2010/04/07 00:00:00+00,N CLINTON ST & W COURT ST,0,4.0,7.0,,2010.0,14.0,-76.1602187252575,43.0630338275009,687
-8481319.3171,5320386.5649,2010/04/06 00:00:00+00,EMERSON AVE & HARBOR ST,0,4.0,6.0,,2010.0,14.0,-76.1889877204907,43.0552586642216,688
-8481319.3171,5320386.5649,2010/04/07 00:00:00+00,EMERSON AVE & HARBOR ST,0,4.0,7.0,,2010.0,14.0,-76.1889877204907,43.0552586642216,689
-8474716.3898,5319610.28639999,2010/04/08 00:00:00+00,1300 E WATER ST,0,4.0,8.0,,2010.0,14.0,-76.1296726153555,43.0501629989918,690
-8475788.8967,5317420.5435,2010/04/08 00:00:00+00,800 E RAYNOR AVE,0,4.0,8.0,,2010.0,14.0,-76.1393071087615,43.0357867565918,691
-8472719.9206,5316624.47880001,2010/04/08 00:00:00+00,210 NOTTINGHAM RD,0,4.0,8.0,,2010.0,14.0,-76.1117380273892,43.0305595459246,692
-8472329.4548,5316646.3223,2010/04/09 00:00:00+00,211 CROYDEN RD,0,4.0,9.0,,2010.0,15.0,-76.1082304134285,43.0307029831419,693
-8475548.28939999,5311396.4898,2010/04/10 00:00:00+00,118 THURLOW DR,0,4.0,10.0,,2010.0,15.0,-76.1371456966108,42.9962198666302,694
-8475619.2425,5311111.0612,2010/04/10 00:00:00+00,300 SUNRISE DR,0,4.0,10.0,,2010.0,15.0,-76.1377830791527,42.9943444961117,695
-8475631.9515,5311508.0667,2010/04/10 00:00:00+00,176 SUNRISE DR,0,4.0,10.0,,2010.0,15.0,-76.1378972460422,42.9969529521998,696
-8474760.02539999,5321903.23129999,2010/04/12 00:00:00+00,115 WENDELL TER,0,4.0,12.0,,2010.0,15.0,-76.1300646006196,43.0652131790931,697
-8476273.9486,5309746.14200001,2010/04/13 00:00:00+00,S SALINA ST & DORWIN AVE,0,4.0,13.0,,2010.0,15.0,-76.1436644041151,42.9853756854857,698
-8476273.9486,5309746.14200001,2010/04/14 00:00:00+00,S SALINA ST & DORWIN AVE,0,4.0,14.0,,2010.0,15.0,-76.1436644041151,42.9853756854857,699
-8480150.9042,5317524.2726,2010/04/17 00:00:00+00,HARTSON ST & LYDELL ST,0,4.0,17.0,,2010.0,16.0,-76.1784916888284,43.0364678416315,700
-8471643.7078,5317526.50549999,2010/04/19 00:00:00+00,401 BRADFORD PKWY,0,4.0,19.0,,2010.0,16.0,-76.1020702433171,43.0364825027648,701
-8477829.1608,5321219.46479999,2010/04/19 00:00:00+00,800 N CLINTON ST,0,4.0,19.0,,2010.0,16.0,-76.1576351130082,43.0607255341138,702
-8472285.9863,5317902.5946,2010/04/20 00:00:00+00,304 SCOTT AVE,0,4.0,20.0,,2010.0,16.0,-76.1078399292493,43.0389518389782,703
-8472533.1571,5316853.1866,2010/04/21 00:00:00+00,SHERBOURNE RD & CRAWFORD AVE,0,4.0,21.0,,2010.0,16.0,-76.1100603023235,43.0320613587013,704
-8472533.1571,5316853.1866,2010/04/21 00:00:00+00,SHERBOURNE RD & CRAWFORD AVE,0,4.0,21.0,,2010.0,16.0,-76.1100603023235,43.0320613587013,705
-8477912.93649999,5316140.1447,2010/04/21 00:00:00+00,1100 SOUTH AVE,0,4.0,21.0,,2010.0,16.0,-76.1583876829256,43.0273790383738,706
-8477912.93649999,5316140.1447,2010/04/22 00:00:00+00,1100 SOUTH AVE,0,4.0,22.0,,2010.0,16.0,-76.1583876829256,43.0273790383738,707
-8477912.93649999,5316140.1447,2010/04/16 00:00:00+00,1100 SOUTH AVE,0,4.0,16.0,,2010.0,16.0,-76.1583876829256,43.0273790383738,708
-8480004.0793,5317731.47269999,2010/04/29 00:00:00+00,HERRIMAN ST & FITCH ST,0,4.0,29.0,,2010.0,17.0,-76.1771727383108,43.0378282943958,709
-8480012.78929999,5317904.19360001,2010/05/02 00:00:00+00,HERRIMAN ST & GRAND AVE,0,5.0,2.0,,2010.0,18.0,-76.177250981572,43.0389623375245,710
-8480012.78929999,5317904.19360001,2010/05/03 00:00:00+00,HERRIMAN ST & GRAND AVE,0,5.0,3.0,,2010.0,18.0,-76.177250981572,43.0389623375245,711
-8481544.7606,5320780.60770001,2010/05/03 00:00:00+00,825 EMERSON AVE,0,5.0,3.0,,2010.0,18.0,-76.1910129139083,43.0578450870533,712
-8481068.91219999,5320258.8468,2010/05/05 00:00:00+00,200 SAINT MARKS AVE,0,5.0,5.0,,2010.0,18.0,-76.1867382950018,43.0544203232233,713
-8475193.76319999,5319121.7014,2010/05/06 00:00:00+00,1115 E GENESEE ST,0,5.0,6.0,,2010.0,18.0,-76.13396093357,43.0469556009722,714
-8481020.1556,5320351.0632,2010/05/06 00:00:00+00,1970 W FAYETTE ST,0,5.0,6.0,,2010.0,18.0,-76.186300307012,43.0550256323825,715
-8478279.0087,5319562.7665,2010/05/11 00:00:00+00,538 ERIE BLVD W,0,5.0,11.0,,2010.0,19.0,-76.1616761654492,43.0498510540165,716
-8475806.1312,5323823.862,2010/05/14 00:00:00+00,WADSWORTH ST & HUNTLEY ST,0,5.0,14.0,,2010.0,20.0,-76.1394619289091,43.0778167611026,717
-8472822.87369999,5319311.5831,2010/05/18 00:00:00+00,E FAYETTE ST & CROLY ST,0,5.0,18.0,,2010.0,20.0,-76.1126628708219,43.0482021311019,718
-8481319.3171,5320386.5649,2010/05/18 00:00:00+00,HARBOR ST & EMERSON AVE,0,5.0,18.0,,2010.0,20.0,-76.1889877204907,43.0552586642216,719
-8480019.5085,5317872.0819,2010/05/20 00:00:00+00,116 HERRIMAN ST,0,5.0,20.0,,2010.0,20.0,-76.1773113411726,43.0387515015528,720
-8481319.3171,5320386.5649,2010/05/19 00:00:00+00,HARBOR ST & EMERSON AVE,0,5.0,19.0,,2010.0,20.0,-76.1889877204907,43.0552586642216,721
-8480019.5085,5317872.0819,2010/05/20 00:00:00+00,116 HERRIMAN ST,0,5.0,20.0,,2010.0,20.0,-76.1773113411726,43.0387515015528,722
-8473608.1013,5318837.0243,2010/05/20 00:00:00+00,328 WESTCOTT ST,0,5.0,20.0,,2010.0,20.0,-76.1197166903679,43.0450867131661,723
-8480134.7066,5317362.106,2010/05/26 00:00:00+00,317 LYDELL ST,0,5.0,26.0,,2010.0,21.0,-76.1783461833119,43.0354030527679,724
-8480002.5398,5317866.30000001,2010/05/26 00:00:00+00,121 HERRIMAN ST,0,5.0,26.0,,2010.0,21.0,-76.177158908747,43.0387135392221,725
-8480004.0793,5317731.47269999,2010/05/27 00:00:00+00,HERRIMAN ST & FITCH ST,0,5.0,27.0,,2010.0,21.0,-76.1771727383108,43.0378282943958,726
-8478363.2178,5317038.04879999,2010/05/27 00:00:00+00,601 BELLEVUE AVE,0,5.0,27.0,,2010.0,21.0,-76.1624326286651,43.0332752319126,727
-8474026.2597,5321806.7542,2010/05/30 00:00:00+00,1658 JAMES ST,0,5.0,30.0,,2010.0,22.0,-76.1234730711869,43.0645800077354,728
-8470651.1238,5317217.3028,2010/06/01 00:00:00+00,450 KIMBER RD,0,6.0,1.0,,2010.0,22.0,-76.0931537095374,43.034452256692,729
-8479508.4583,5317937.7504,2009/01/06 00:00:00+00,600 DELAWARE ST,0,1.0,6.0,,2009.0,1.0,-76.1727204991165,43.0391826608233,730
-8479508.4583,5317937.7504,2009/01/05 00:00:00+00,600 DELAWARE ST,0,1.0,5.0,,2009.0,1.0,-76.1727204991165,43.0391826608233,731
-8474069.4671,5322302.94169999,2006/12/09 00:00:00+00,RUGBY RD & HAMPTON RD,0,12.0,9.0,,2006.0,49.0,-76.123861209865,43.0678363762523,732
-8475473.3066,5314868.2191,2009/01/01 00:00:00+00,102 STEVENS PL,0,1.0,1.0,,2009.0,1.0,-76.136472114658,43.0190258189274,733
-8477147.144,5315238.1882,2006/12/15 00:00:00+00,215 HOPE AVE,0,12.0,15.0,,2006.0,50.0,-76.1515084518535,43.0214556640158,734
-8475473.3066,5314868.2191,2009/01/02 00:00:00+00,102 STEVENS PL,0,1.0,2.0,,2009.0,1.0,-76.136472114658,43.0190258189274,735
-8477166.1999,5315244.5896,2006/12/15 00:00:00+00,206 HOPE AVE,0,12.0,15.0,,2006.0,50.0,-76.1516796339157,43.0214977056275,736
-8471471.10789999,5321245.12399999,2008/01/02 00:00:00+00,1200 CALEB AVE,0,1.0,2.0,,2008.0,1.0,-76.100519752035,43.0608939445819,737
-8474238.4165,5322274.84640001,2006/12/19 00:00:00+00,RUGBY RD & DORCHESTER AVE,0,12.0,19.0,,2006.0,51.0,-76.1253789081476,43.0676519976496,738
-8470711.27669999,5319704.10919999,2009/01/10 00:00:00+00,117 FOXBORO RD,0,1.0,10.0,,2009.0,2.0,-76.0936940722319,43.0507788952723,739
-8479517.6706,5316220.13879999,2006/12/21 00:00:00+00,CROSSETT ST & ROBINEAU RD,0,12.0,21.0,,2006.0,51.0,-76.1728032546154,43.0279043520818,740
-8474612.3686,5322765.99059999,2009/01/13 00:00:00+00,481 BRATTLE RD,0,1.0,13.0,,2009.0,2.0,-76.1287381770172,43.0708751074459,741
-8480295.9271,5316064.2715,2006/12/30 00:00:00+00,109 ARGONNE DR,0,12.0,30.0,,2006.0,52.0,-76.1797944517046,43.026880782073,742
-8474988.8301,5318130.7536,2009/01/14 00:00:00+00,304 WAVERLY AVE,0,1.0,14.0,,2009.0,2.0,-76.1321199882105,43.0404498432206,743
-8477074.9442,5315656.49510001,2005/12/03 00:00:00+00,MIDLAND AVE & W COLVIN ST,0,12.0,3.0,,2005.0,49.0,-76.150859870015,43.0242028613191,744
-8476739.0148,5313830.4325,2009/01/15 00:00:00+00,MIDLAND AVE & HALL AVE,0,1.0,15.0,,2009.0,3.0,-76.1478421648709,43.0122094374146,745
-8474301.5457,5322365.9421,2009/01/19 00:00:00+00,125 WHEATON RD,0,1.0,19.0,,2009.0,3.0,-76.1259460073999,43.068249821529,746
-8479287.3069,5315991.4697,2009/01/19 00:00:00+00,610 ROBERTS AVE,0,1.0,19.0,,2009.0,3.0,-76.1707338622893,43.0264026917324,747
-8475204.65689999,5319903.93560001,2009/01/20 00:00:00+00,660 BURNET AVE,0,1.0,20.0,,2009.0,3.0,-76.1340587933421,43.0520906276284,748
-8478203.3779,5321263.6706,2009/01/20 00:00:00+00,300 W KIRKPATRICK ST,0,1.0,20.0,,2009.0,3.0,-76.1609967624132,43.0610156722351,749
-8472984.4256,5318130.21969999,2009/01/20 00:00:00+00,749 WESTMORELAND AVE,0,1.0,20.0,,2009.0,3.0,-76.1141141162314,43.0404463378812,750
-8475762.03539999,5315903.2213,2009/01/21 00:00:00+00,115 BERWYN AVE,0,1.0,21.0,,2009.0,3.0,-76.139065809598,43.0258231583819,751
-8476951.84,5315173.81889999,2009/01/22 00:00:00+00,202 FOREST AVE,0,1.0,22.0,,2009.0,4.0,-76.149754006171,43.0210329128427,752
-8475423.6336,5320073.34780001,2009/01/21 00:00:00+00,520 HAWLEY AVE,0,1.0,21.0,,2009.0,3.0,-76.1360258945069,43.0532026882627,753
